Time,Longitude  ,Latitude,Altitude,Roll (deg),Pitch (deg),Yaw (deg)
0.0,10.9398,50.9815,315.7728,0,0.0,0.0
1.0,10.939799999999991,50.9815,316.4326488056778,0,5.0,270.0
2.0,10.939799999999991,50.9815,317.65234846398425,0,5.0,0.0
3.0,10.939799999999991,50.9815,319.4319027372045,0,5.0,0.0
4.0,10.939799999999991,50.9815,321.7713171029663,0,5.0,0.0
5.0,10.939799999999991,50.9815,324.6705987542525,0,5.0,0.0
6.0,10.939799999999991,50.9815,328.12975659941765,0,5.0,0.0
7.0,10.939799999999991,50.9815,332.148801262208,0,5.0,0.0
8.0,10.939799999999991,50.9815,336.7277450817859,0,5.0,0.0
9.0,10.939799999999991,50.9815,341.8666021127578,0,5.0,0.0
10.0,10.939799999999991,50.9815,347.5653881252063,0,5.0,0.0
11.0,10.939799999999991,50.9815,353.8241206047261,0,5.0,0.0
12.0,10.939799999999991,50.9815,360.6428187524636,0,5.0,0.0
13.0,10.939799999999991,50.9815,368.0215034851608,0,5.0,0.0
14.0,10.939799999999991,50.9815,375.9601974352028,0,5.0,0.0
15.0,10.939799999999991,50.9815,384.4589249506695,0,5.0,0.0
16.0,10.939799999999991,50.9815,393.5177120953906,0,5.0,0.0
17.0,10.939799999999991,50.9815,403.1365866490055,0,5.0,0.0
18.0,10.939851484446422,50.981495444619995,412.7092935495821,0,5.0,98.00000000508157
19.0,10.939912453904782,50.98149004999639,422.3358621461037,0,5.0,97.99999998767555
20.0,10.939982908371633,50.981483816128396,432.01632195175694,0,5.0,97.99999998296403
21.0,10.940062847843024,50.981476743015236,441.7507026440203,0,5.0,97.999999996383
22.0,10.940152272314492,50.981468830656155,451.5390340647527,0,5.0,97.99999999050027
23.0,10.940251181781008,50.98146007905036,461.38134622028264,0,5.0,98.00000000382715
24.0,10.940359576237057,50.98145048819709,471.27766928149805,0,5.0,98.00000000253453
25.0,10.940477455676614,50.98144005809559,481.2280335839362,0,5.0,97.99999999764822
26.0,10.940604820093142,50.981428788745085,491.23246962787454,0,5.0,97.99999999612055
27.0,10.940741669479564,50.9814166801448,501.2910080784216,0,5.0,98.00000000527075
28.0,10.940888003828348,50.98140373229396,511.40367976560896,0,5.0,97.99999999812957
29.0,10.941043823131366,50.9813899451918,521.570515684483,0,5.0,98.00000000218802
30.0,10.941209127380063,50.98137531883756,531.7915469951978,0,5.0,98.00000000092831
31.0,10.941383916565314,50.981359853230444,542.066805023108,0,5.0,98.0000000023557
32.0,10.941568190677486,50.98134354836973,552.3963212588628,0,5.0,97.99999998914996
33.0,10.94176194970646,50.9813264042546,562.7801273584994,0,5.0,97.99999999888917
34.0,10.94196519364155,50.9813084208843,573.218255143538,0,5.0,97.99999999958646
35.0,10.942177922471615,50.98128959825806,583.7107366010772,0,5.0,97.99999999964109
36.0,10.942400136184915,50.98126993637511,594.2576038838886,0,5.0,97.99999999699662
37.0,10.942631834769315,50.98124943523468,604.8588893105137,0,5.0,97.99999999641784
38.0,10.942873018212083,50.981228094836005,615.5146253653604,0,5.0,97.99999999830482
39.0,10.943123686499973,50.98120591517831,626.2248446987994,0,5.0,97.9999999986087
40.0,10.943383839619258,50.981182896260805,636.9895801272623,0,5.0,98.00000000325622
41.0,10.94365347755567,50.981159038082765,647.8088646333396,0,5.0,97.99999999667756
42.0,10.943932600294431,50.98113434064337,658.6827313658789,0,5.0,98.00000000347745
43.0,10.944221207820306,50.98110880394191,669.6112136400843,0,5.0,97.99999999688714
44.0,10.944519300117463,50.98108242797755,680.5943449376157,0,5.0,98.00000000052273
45.0,10.94482687716959,50.98105521274956,691.6321589066887,0,5.0,97.99999999964416
46.0,10.945143938959859,50.98102715825715,702.7246893621755,0,5.0,98.00000000444805
47.0,10.945470485470906,50.980998264499554,713.8719702857053,0,5.0,98.00000000298496
48.0,10.946589295157196,50.980899265063876,716.6756948293618,0,-5.0,97.99999999995327
49.0,10.947780471341162,50.98079386157048,711.1358715047362,0,-5.0,97.99999999948471
50.0,10.94855424950731,50.98072539361336,711.1358715047362,0,0.0,97.99999999941213
51.0,10.949411860366695,50.9806495072682,711.1358715047362,0,0.0,98.00000000115415
52.0,10.950269469824377,50.98057362092305,711.1358715047362,0,0.0,97.9999999990057
53.0,10.95112707788033,50.98049773457792,711.1358715047362,0,0.0,97.9999999991627
54.0,10.951984684534551,50.98042184823279,711.1358715047362,0,0.0,98.00000000035402
55.0,10.9528422897871,50.98034596188768,711.1358715047362,0,0.0,97.99999999877207
56.0,10.953699893637946,50.98027007554256,711.1358715047362,0,0.0,97.99999999949563
57.0,10.95455749608709,50.980194189197455,711.1358715047362,0,0.0,98.00000000027512
58.0,10.955415097134562,50.98011830285237,711.1358715047362,0,0.0,97.99999999886137
59.0,10.95627269678036,50.980042416507274,711.1358715047362,0,0.0,98.00000000013671
60.0,10.957130295024484,50.979966530162194,711.1358715047362,0,0.0,98.00000000017354
61.0,10.957987891866964,50.97989064381713,711.1358715047362,0,0.0,97.99999999964257
62.0,10.95884548730777,50.97981475747206,711.1358715047362,0,0.0,97.99999999979144
63.0,10.959703081346902,50.979738871127005,711.1358715047362,0,0.0,98.00000000062903
64.0,10.96056067398439,50.97966298478196,711.1358715047362,0,0.0,98.0000000002808
65.0,10.96141826522026,50.979587098436916,711.1358715047362,0,0.0,97.9999999997251
66.0,10.962275855054486,50.979511212091886,711.1358715047362,0,0.0,98.00000000016553
67.0,10.963133443487095,50.97943532574688,711.1358715047362,0,0.0,97.99999999937626
68.0,10.96399103051806,50.97935943940186,711.1358715047362,0,0.0,98.00000000025977
69.0,10.964848616147435,50.97928355305685,711.1358715047362,0,0.0,97.99999999931896
70.0,10.965706200375195,50.97920766671187,711.1358715047362,0,0.0,97.99999999938905
71.0,10.966563783201337,50.979131780366885,711.1358715047362,0,0.0,98.00000000016246
72.0,10.967421364625892,50.979055894021904,711.1358715047362,0,0.0,98.00000000008106
73.0,10.968278944648858,50.97898000767694,711.1358715047362,0,0.0,97.99999999969538
74.0,10.969136523270208,50.97890412133197,711.1358715047362,0,0.0,98.00000000065154
75.0,10.969994100489998,50.97882823498702,711.1358715047362,0,0.0,98.00000000045998
76.0,10.970851676308229,50.978752348642075,711.1358715047362,0,0.0,97.99999999934624
77.0,10.97170925072487,50.978676462297145,711.1358715047362,0,0.0,97.99999999919942
78.0,10.972566823739953,50.978600575952214,711.1358715047362,0,0.0,98.00000000016888
79.0,10.973424395353476,50.978524689607305,711.1358715047362,0,0.0,97.99999999920863
80.0,10.974281965565439,50.97844880326239,711.1358715047362,0,0.0,98.00000000096674
81.0,10.97513953437587,50.97837291691748,711.1358715047362,0,0.0,98.00000000086249
82.0,10.97599710178477,50.978297030572584,711.1358715047362,0,0.0,98.00000000013767
83.0,10.97685466779214,50.978221144227696,711.1358715047362,0,0.0,98.00000000046185
84.0,10.977712232397977,50.978145257882815,711.1358715047362,0,0.0,98.00000000019475
85.0,10.978569795602311,50.97806937153795,711.1358715047362,0,0.0,98.00000000005105
86.0,10.979427357405115,50.97799348519309,711.1358715047362,0,0.0,97.99999999988142
87.0,10.980284917806415,50.97791759884824,711.1358715047362,0,0.0,97.99999999951882
88.0,10.981142476806241,50.9778417125034,711.1358715047362,0,0.0,97.99999999994162
89.0,10.982000034404535,50.97776582615856,711.1358715047362,0,0.0,98.00000000060197
90.0,10.982857590601355,50.977689939813736,711.1358715047362,0,0.0,97.99999999915099
91.0,10.983715145396701,50.97761405346892,711.1358715047362,0,0.0,98.00000000040382
92.0,10.984572698790544,50.97753816712411,711.1358715047362,0,0.0,98.00000000063778
93.0,10.98543025078294,50.97746228077931,711.1358715047362,0,0.0,97.99999999976791
94.0,10.986287801373862,50.97738639443452,711.1358715047362,0,0.0,97.99999999918839
95.0,10.98714535056331,50.977310508089744,711.1358715047362,0,0.0,97.99999999934141
96.0,10.98800289835134,50.97723462174498,711.1358715047362,0,0.0,97.9999999996707
97.0,10.988860444737895,50.97715873540022,711.1358715047362,0,0.0,97.99999999928855
98.0,10.989717989723033,50.97708284905546,711.1358715047362,0,0.0,97.99999999974455
99.0,10.990575533306725,50.97700696271072,711.1358715047362,0,0.0,97.99999999951251
100.0,10.991433075488999,50.97693107636598,711.1358715047362,0,0.0,97.99999999976421
101.0,10.992290616269855,50.976855190021254,711.1358715047362,0,0.0,97.99999999906441
102.0,10.993148155649294,50.97677930367654,711.1358715047362,0,0.0,97.99999999974449
103.0,10.994005693627315,50.97670341733183,711.1358715047362,0,0.0,97.99999999947306
104.0,10.994863230203947,50.976627530987116,711.1358715047362,0,0.0,98.0000000003472
105.0,10.995720765379161,50.97655164464242,711.1358715047362,0,0.0,97.99999999987148
106.0,10.996578299152986,50.97647575829774,711.1358715047362,0,0.0,97.99999999852628
107.0,10.997435831525422,50.97639987195306,711.1358715047362,0,0.0,98.0000000005615
108.0,10.998293362496497,50.976323985608396,711.1358715047362,0,0.0,97.99999999905009
109.0,10.999150892066183,50.97624809926373,711.1358715047362,0,0.0,98.00000000020441
110.0,11.000008420234508,50.97617221291907,711.1358715047362,0,0.0,98.00000000047459
111.0,11.000865947001472,50.97609632657442,711.1358715047362,0,0.0,97.99999999980793
112.0,11.001723472367075,50.97602044022978,711.1358715047362,0,0.0,98.0000000002048
113.0,11.002580996331346,50.97594455388515,711.1358715047362,0,0.0,97.99999999938655
114.0,11.003438518894285,50.97586866754054,711.1358715047362,0,0.0,97.99999999895533
115.0,11.004296040055863,50.97579278119593,711.1358715047362,0,0.0,98.00000000018224
116.0,11.005153559816108,50.975716894851324,711.1358715047362,0,0.0,97.99999999920112
117.0,11.00601107817505,50.975641008506734,711.1358715047362,0,0.0,97.99999999902002
118.0,11.006868595132659,50.97556512216215,711.1358715047362,0,0.0,97.99999999980577
119.0,11.007726110688935,50.97548923581757,711.1358715047362,0,0.0,98.00000000066223
120.0,11.008583624843936,50.975413349473,711.1358715047362,0,0.0,97.99999999970902
121.0,11.009441137597605,50.97533746312844,711.1358715047362,0,0.0,98.00000000033197
122.0,11.010298648949998,50.975261576783886,711.1358715047362,0,0.0,97.99999999952007
123.0,11.011156158901116,50.975185690439346,711.1358715047362,0,0.0,97.99999999906589
124.0,11.012013667450958,50.97510980409481,711.1358715047362,0,0.0,98.00000000098453
125.0,11.012871174599496,50.97503391775028,711.1358715047362,0,0.0,97.99999999992775
126.0,11.013728680346787,50.97495803140576,711.1358715047362,0,0.0,97.99999999972363
127.0,11.014586184692831,50.974882145061244,711.1358715047362,0,0.0,98.00000000056855
128.0,11.0154436876376,50.97480625871674,711.1358715047362,0,0.0,97.99999999974716
129.0,11.016301189181092,50.97473037237226,711.1358715047362,0,0.0,97.99999999896727
130.0,11.017158689323367,50.97465448602778,711.1358715047362,0,0.0,97.99999999872364
131.0,11.018016188064394,50.9745785996833,711.1358715047362,0,0.0,98.00000000111652
132.0,11.018873685404202,50.974502713338836,711.1358715047362,0,0.0,97.99999999933016
133.0,11.019731181342763,50.974426826994375,711.1358715047362,0,0.0,98.00000000049647
134.0,11.020588675880106,50.97435094064991,711.1358715047362,0,0.0,98.00000000082264
135.0,11.021446169016258,50.97427505430548,711.1358715047362,0,0.0,97.99999999892611
136.0,11.022303660751163,50.974199167961046,711.1358715047362,0,0.0,98.00000000062079
137.0,11.023161151084878,50.97412328161662,711.1358715047362,0,0.0,97.99999999982924
138.0,11.024018640017403,50.974047395272216,711.1358715047362,0,0.0,97.99999999813002
139.0,11.024876127548737,50.973971508927804,711.1358715047362,0,0.0,98.00000000042922
140.0,11.02573361367888,50.97389562258341,711.1358715047362,0,0.0,97.9999999988421
141.0,11.026591098407835,50.97381973623902,711.1358715047362,0,0.0,97.99999999992946
142.0,11.027448581735626,50.97374384989464,711.1358715047362,0,0.0,98.00000000050755
143.0,11.028306063662257,50.97366796355026,711.1358715047362,0,0.0,98.0000000001341
144.0,11.029163544187725,50.9735920772059,711.1358715047362,0,0.0,97.99999999948568
145.0,11.03002102331206,50.973516190861545,711.1358715047362,0,0.0,97.99999999963728
146.0,11.030878501035232,50.9734403045172,711.1358715047362,0,0.0,97.99999999877002
147.0,11.031735977357272,50.973364418172864,711.1358715047362,0,0.0,98.00000000001188
148.0,11.03259345227815,50.97328853182853,711.1358715047362,0,0.0,98.00000000024954
149.0,11.033450925797922,50.97321264548421,711.1358715047362,0,0.0,97.9999999990377
150.0,11.034308397916561,50.9731367591399,711.1358715047362,0,0.0,97.99999999945476
151.0,11.035165868634067,50.97306087279559,711.1358715047362,0,0.0,98.00000000025881
152.0,11.036023337950468,50.972984986451294,711.1358715047362,0,0.0,97.99999999987699
153.0,11.036880805865763,50.972909100107,711.1358715047362,0,0.0,98.0000000001985
154.0,11.037738272379954,50.97283321376272,711.1358715047362,0,0.0,98.000000000245
155.0,11.038595737493068,50.97275732741845,711.1358715047362,0,0.0,97.99999999978229
156.0,11.039453201205106,50.97268144107419,711.1358715047362,0,0.0,97.99999999933169
157.0,11.040310663516038,50.97260555472993,711.1358715047362,0,0.0,98.00000000022288
158.0,11.041168124425894,50.97252966838569,711.1358715047362,0,0.0,97.9999999995826
159.0,11.042025583934702,50.972453782041455,711.1358715047362,0,0.0,97.99999999906572
160.0,11.042883042042433,50.97237789569722,711.1358715047362,0,0.0,98.00000000050863
161.0,11.043740498749116,50.97230200935301,711.1358715047362,0,0.0,97.99999999942719
162.0,11.044597954054751,50.9722261230088,711.1358715047362,0,0.0,97.99999999876201
163.0,11.045455407959338,50.9721502366646,711.1358715047362,0,0.0,98.00000000010937
164.0,11.046312860462876,50.97207435032041,711.1358715047362,0,0.0,97.99999999987256
165.0,11.047170311565395,50.97199846397623,711.1358715047362,0,0.0,97.99999999941355
166.0,11.048027761266894,50.97192257763204,711.1358715047362,0,0.0,98.00000000003268
167.0,11.048885209567345,50.97184669128788,711.1358715047362,0,0.0,97.99999999961835
168.0,11.049742656466776,50.97177080494372,711.1358715047362,0,0.0,98.00000000000392
169.0,11.050600101965244,50.97169491859956,711.1358715047362,0,0.0,98.0000000005802
170.0,11.051457546062665,50.97161903225542,711.1358715047362,0,0.0,97.99999999968657
171.0,11.052314988759093,50.97154314591128,711.1358715047362,0,0.0,97.99999999996197
172.0,11.053172430054559,50.97146725956714,711.1358715047362,0,0.0,98.00000000138289
173.0,11.054029869949034,50.97139137322302,711.1358715047362,0,0.0,98.00000000013011
174.0,11.054887308442517,50.971315486878915,711.1358715047362,0,0.0,97.99999999991161
175.0,11.055744745535037,50.971239600534815,711.1358715047362,0,0.0,97.99999999984573
176.0,11.056602181226594,50.97116371419072,711.1358715047362,0,0.0,97.99999999949023
177.0,11.057459615517189,50.97108782784664,711.1358715047362,0,0.0,98.00000000018372
178.0,11.05831704840682,50.971011941502546,711.1358715047362,0,0.0,98.0000000012642
179.0,11.059174479895518,50.97093605515849,711.1358715047362,0,0.0,97.99999999915826
180.0,11.06003190998328,50.970860168814426,711.1358715047362,0,0.0,97.99999999943986
181.0,11.060889338670108,50.97078428247037,711.1358715047362,0,0.0,98.00000000074101
182.0,11.061746765956002,50.97070839612633,711.1358715047362,0,0.0,97.99999999981071
183.0,11.062604191840961,50.97063250978229,711.1358715047362,0,0.0,98.00000000024568
184.0,11.063461616325014,50.97055662343827,711.1358715047362,0,0.0,97.99999999948011
185.0,11.064319039408161,50.970480737094256,711.1358715047362,0,0.0,97.99999999944714
186.0,11.065176461090402,50.97040485075024,711.1358715047362,0,0.0,98.0000000004485
187.0,11.066033881371737,50.97032896440625,711.1358715047362,0,0.0,97.99999999920362
188.0,11.066891300252195,50.970253078062264,711.1358715047362,0,0.0,97.99999999904583
189.0,11.067748717731746,50.97017719171828,711.1358715047362,0,0.0,98.00000000057543
190.0,11.06860613381042,50.970101305374314,711.1358715047362,0,0.0,97.99999999920573
191.0,11.069463548488216,50.97002541903034,711.1358715047362,0,0.0,98.00000000023812
192.0,11.070320961765162,50.969949532686385,711.1358715047362,0,0.0,98.00000000040097
193.0,11.071178373641231,50.96987364634244,711.1358715047362,3.0,0.0,97.99999999921391
194.0,11.072033980281134,50.969790075669756,711.1358715047362,6.0,0.0,98.81627382482156
195.0,11.072887607893335,50.96969883763078,711.1358715047362,8.73789903053749,0.0,99.63254765182046
196.0,11.073739083090004,50.96959995074414,711.1358715047362,8.73789903053749,0.0,100.44882147753054
197.0,11.074588232922366,50.96949343508091,711.1358715047362,8.73789903053749,0.0,101.26509530455951
198.0,11.07543488491595,50.96937931226053,711.1358715047362,8.73789903053749,0.0,102.08136912990608
199.0,11.076278867105714,50.96925760544637,711.1358715047362,8.73789903053749,0.0,102.89764295620705
200.0,11.077120008071176,50.96912833934112,711.1358715047362,8.73789903053749,0.0,103.71391678257078
201.0,11.07795813697129,50.96899154018166,711.1358715047362,8.73789903053749,0.0,104.53019060946303
202.0,11.07879308357937,50.96884723573386,711.1358715047362,8.73789903053749,0.0,105.34646443446888
203.0,11.079624678317685,50.96869545528684,711.1358715047362,8.73789903053749,0.0,106.16273826163717
204.0,11.08045275229216,50.96853622964708,711.1358715047362,8.73789903053749,0.0,106.97901208685232
205.0,11.081277137326708,50.96836959113214,711.1358715047362,8.73789903053749,0.0,107.7952859123202
206.0,11.082097665997537,50.9681955735641,711.1358715047362,8.73789903053749,0.0,108.61155973951418
207.0,11.082914171667227,50.96801421226274,711.1358715047362,8.73789903053749,0.0,109.42783356681502
208.0,11.083726488518778,50.967825544038305,711.1358715047362,8.73789903053749,0.0,110.24410739355437
209.0,11.084534451589349,50.967629607184094,711.1358715047362,8.73789903053749,0.0,111.06038121853368
210.0,11.08533789680385,50.96742644146865,711.1358715047362,8.73789903053749,0.0,111.87665504502411
211.0,11.086136661008453,50.96721608812768,711.1358715047362,8.73789903053749,0.0,112.69292887096873
212.0,11.08693058200376,50.96699858985571,711.1358715047362,8.73789903053749,0.0,113.50920269738697
213.0,11.087719498577854,50.966773990797414,711.1358715047362,8.73789903053749,0.0,114.32547652342475
214.0,11.08850325053919,50.966542336538645,711.1358715047362,8.73789903053749,0.0,115.14175034948028
215.0,11.089281678749188,50.96630367409719,711.1358715047362,8.73789903053749,0.0,115.95802417522123
216.0,11.090054625154579,50.96605805191321,711.1358715047362,8.73789903053749,0.0,116.77429800260603
217.0,11.090821932819722,50.965805519839435,711.1358715047362,8.73789903053749,0.0,117.59057182840525
218.0,11.091583445958491,50.965546129131056,711.1358715047362,8.73789903053749,0.0,118.40684565477306
219.0,11.092339009965968,50.965279932435244,711.1358715047362,8.73789903053749,0.0,119.22311948101583
220.0,11.093088471449988,50.965006983780555,711.1358715047362,8.73789903053749,0.0,120.03939330621927
221.0,11.093831678262234,50.96472733856592,711.1358715047362,8.73789903053749,0.0,120.85566713450248
222.0,11.094568479529414,50.9644410535494,711.1358715047362,8.73789903053749,0.0,121.67194095973889
223.0,11.09529872568379,50.964148186836674,711.1358715047362,8.73789903053749,0.0,122.48821478590799
224.0,11.096022268493641,50.96384879786925,711.1358715047362,8.73789903053749,0.0,123.30448861054288
225.0,11.096738961093479,50.96354294741238,711.1358715047362,8.73789903053749,0.0,124.12076243753415
226.0,11.09744865801386,50.96323069754274,711.1358715047362,8.73789903053749,0.0,124.93703626468857
227.0,11.098151215211061,50.96291211163586,711.1358715047362,8.73789903053749,0.0,125.75331008945716
228.0,11.098846490096264,50.962587254353195,711.1358715047362,8.73789903053749,0.0,126.56958391590757
229.0,11.099534341564635,50.96225619162907,711.1358715047362,8.73789903053749,0.0,127.38585774318369
230.0,11.100214630023999,50.96191899065723,711.1358715047362,8.73789903053749,0.0,128.2021315696868
231.0,11.100887217423178,50.96157571987728,711.1358715047362,8.73789903053749,0.0,129.01840539512136
232.0,11.101551967280074,50.9612264489607,711.1358715047362,8.73789903053749,0.0,129.83467922208962
233.0,11.102208744709458,50.9608712487968,711.1358715047362,8.73789903053749,0.0,130.6509530478893
234.0,11.102857416450263,50.96051019147825,711.1358715047362,8.73789903053749,0.0,131.46722687442946
235.0,11.10349785089275,50.960143350286515,711.1358715047362,8.73789903053749,0.0,132.28350070076397
236.0,11.104129918105201,50.95977079967694,711.1358715047362,8.73789903053749,0.0,133.09977452650492
237.0,11.104753489860315,50.95939261526363,711.1358715047362,8.73789903053749,0.0,133.91604835348699
238.0,11.105368439661248,50.95900887380416,711.1358715047362,8.73789903053749,0.0,134.73232217929217
239.0,11.10597464276728,50.95861965318392,711.1358715047362,8.73789903053749,0.0,135.54859600484275
240.0,11.106571976219158,50.958225032400364,711.1358715047362,8.73789903053749,0.0,136.3648698316623
241.0,11.107160318863976,50.95782509154696,711.1358715047362,8.73789903053749,0.0,137.18114365836482
242.0,11.107739551379865,50.95741991179692,711.1358715047362,8.73789903053749,0.0,137.99741748442727
243.0,11.1083095563001,50.957009575386756,711.1358715047362,8.73789903053749,0.0,138.81369131059182
244.0,11.108870218036998,50.95659416559955,711.1358715047362,8.73789903053749,0.0,139.6299651367159
245.0,11.109421422905285,50.95617376674805,711.1358715047362,8.73789903053749,0.0,140.4462389627207
246.0,11.109963059145201,50.95574846415762,711.1358715047362,8.73789903053749,0.0,141.26251278799003
247.0,11.110495016945038,50.95531834414887,711.1358715047362,8.73789903053749,0.0,142.07878661526416
248.0,11.111017188463563,50.95488349402014,711.1358715047362,8.73789903053749,0.0,142.89506044099926
249.0,11.11152946785171,50.95444400202975,711.1358715047362,8.73789903053749,0.0,143.71133426834774
250.0,11.11203175127406,50.95399995737821,711.1358715047362,8.73789903053749,0.0,144.52760809520862
251.0,11.11252393692996,50.95355145018994,711.1358715047362,8.73789903053749,0.0,145.34388191947107
252.0,11.113005925073907,50.95309857149511,711.1358715047362,8.73789903053749,0.0,146.1601557469736
253.0,11.113477618035944,50.95264141321114,711.1358715047362,8.73789903053749,0.0,146.97642957355345
254.0,11.11393892024131,50.952180068124,711.1358715047362,8.73789903053749,0.0,147.79270339902575
255.0,11.11438973822979,50.951714629869414,711.1358715047362,8.73789903053749,0.0,148.60897722432935
256.0,11.114829980674557,50.95124519291386,711.1358715047362,8.73789903053749,0.0,149.425251051273
257.0,11.115259558400737,50.95077185253533,711.1358715047362,8.73789903053749,0.0,150.24152487706056
258.0,11.115678384403282,50.950294704804136,711.1358715047362,8.73789903053749,0.0,151.05779870401716
259.0,11.116086373864675,50.94981384656325,711.1358715047362,8.73789903053749,0.0,151.8740725293145
260.0,11.116483444171962,50.949329375408745,711.1358715047362,8.73789903053749,0.0,152.69034635516368
261.0,11.116869514933398,50.94884138966996,711.1358715047362,8.73789903053749,0.0,153.50662018279093
262.0,11.11724450799477,50.948349988389545,711.1358715047362,8.73789903053749,0.0,154.32289400906416
263.0,11.117608347455075,50.94785527130337,711.1358715047362,8.73789903053749,0.0,155.13916783446598
264.0,11.117960959681795,50.94735733882026,711.1358715047362,8.73789903053749,0.0,155.95544166081277
265.0,11.118302273325781,50.94685629200165,711.1358715047362,8.73789903053749,0.0,156.77171548661545
266.0,11.11863221933558,50.94635223254101,711.1358715047362,8.73789903053749,0.0,157.58798931336014
267.0,11.118950730971363,50.9458452627433,711.1358715047362,8.73789903053749,0.0,158.40426313863998
268.0,11.119257743818252,50.94533548550413,711.1358715047362,8.73789903053749,0.0,159.22053696609305
269.0,11.119553195799426,50.94482300428889,711.1358715047362,8.73789903053749,0.0,160.03681079196406
270.0,11.119837027188424,50.94430792311178,711.1358715047362,8.73789903053749,0.0,160.85308461931982
271.0,11.120109180621256,50.94379034651468,711.1358715047362,8.73789903053749,0.0,161.6693584444289
272.0,11.120369601107825,50.94327037954592,711.1358715047362,8.73789903053749,0.0,162.48563226956878
273.0,11.12061823604293,50.94274812773898,711.1358715047362,8.73789903053749,0.0,163.3019060977017
274.0,11.12085503521692,50.94222369709108,711.1358715047362,8.73789903053749,0.0,164.11817992287774
275.0,11.121079950825589,50.94169719404162,711.1358715047362,8.73789903053749,0.0,164.93445375008525
276.0,11.121292937479865,50.941168725450645,711.1358715047362,8.73789903053749,0.0,165.75072757478233
277.0,11.121493952214706,50.9406383985771,711.1358715047362,8.73789903053749,0.0,166.56700140249484
278.0,11.121682954497857,50.94010632105709,711.1358715047362,8.73789903053749,0.0,167.3832752275897
279.0,11.121859906237745,50.939572600881995,711.1358715047362,8.73789903053749,0.0,168.1995490547531
280.0,11.12202477179116,50.93903734637664,711.1358715047362,8.73789903053749,0.0,169.01582288165014
281.0,11.122177517970329,50.93850066617718,711.1358715047362,8.73789903053749,0.0,169.8320967060895
282.0,11.122318114049364,50.93796266920921,711.1358715047362,8.73789903053749,0.0,170.64837053314204
283.0,11.122446531770493,50.9374234646655,711.1358715047362,8.73789903053749,0.0,171.4646443592576
284.0,11.12256274534954,50.93688316198396,711.1358715047362,8.73789903053749,0.0,172.2809181840396
285.0,11.122666731480962,50.93634187082534,711.1358715047362,8.73789903053749,0.0,173.0971920114439
286.0,11.1227584693425,50.93579970105101,711.1358715047362,8.73789903053749,0.0,173.9134658377568
287.0,11.122837940599169,50.93525676270068,711.1358715047362,8.73789903053749,0.0,174.729739664205
288.0,11.122905129406831,50.93471316597004,711.1358715047362,8.73789903053749,0.0,175.5460134902636
289.0,11.122960022415214,50.9341690211884,711.1358715047362,8.73789903053749,0.0,176.36228731712686
290.0,11.123002608770491,50.93362443879631,711.1358715047362,8.73789903053749,0.0,177.1785611427389
291.0,11.12303288011725,50.9330795293231,711.1358715047362,8.73789903053749,0.0,177.99483496942548
292.0,11.123050830600079,50.93253440336454,711.1358715047362,8.73789903053749,0.0,178.81110879477205
293.0,11.123056456864504,50.93198917156029,711.1358715047362,8.73789903053749,0.0,179.6273826216384
294.0,11.123049758057562,50.93144394457152,711.1358715047362,8.73789903053749,0.0,180.44365644813433
295.0,11.123030735827768,50.930898833058414,711.1358715047362,8.73789903053749,0.0,181.25993027431286
296.0,11.122999394324609,50.93035394765772,711.1358715047362,8.73789903053749,0.0,182.07620410063845
297.0,11.122955740197511,50.92980939896029,711.1358715047362,8.73789903053749,0.0,182.89247792739434
298.0,11.122899782594374,50.92926529748865,711.1358715047362,8.73789903053749,0.0,183.70875175213013
299.0,11.122831533159427,50.92872175367454,711.1358715047362,8.73789903053749,0.0,184.52502557863562
300.0,11.122751006030796,50.92817887783654,711.1358715047362,8.73789903053749,0.0,185.34129940521493
301.0,11.122658217837397,50.92763678015764,711.1358715047362,8.73789903053749,0.0,186.15757323288562
302.0,11.122553187695473,50.927095570662935,711.1358715047362,8.73789903053749,0.0,186.97384705808744
303.0,11.122435937204443,50.92655535919721,711.1358715047362,8.73789903053749,0.0,187.79012088383848
304.0,11.122306490442384,50.92601625540272,711.1358715047362,8.73789903053749,0.0,188.60639470988397
305.0,11.122164873960998,50.925478368696915,711.1358715047362,8.73789903053749,0.0,189.42266853551055
306.0,11.122011116780016,50.92494180825019,711.1358715047362,8.73789903053749,0.0,190.2389423616932
307.0,11.12184525038117,50.92440668296382,711.1358715047362,8.73789903053749,0.0,191.0552161885169
308.0,11.12166730870166,50.92387310144777,711.1358715047362,8.73789903053749,0.0,191.87149001425502
309.0,11.121477328127042,50.9233411719987,711.1358715047362,8.73789903053749,0.0,192.6877638407384
310.0,11.121275347483731,50.922811002577966,711.1358715047362,8.73789903053749,0.0,193.50403766773002
311.0,11.121061408030954,50.92228270078971,711.1358715047362,8.73789903053749,0.0,194.32031149418177
312.0,11.120835553452224,50.921756373859004,711.1358715047362,8.73789903053749,0.0,195.13658531940612
313.0,11.120597829846304,50.92123212861017,711.1358715047362,8.73789903053749,0.0,195.95285914555384
314.0,11.120348285717682,50.92071007144498,711.1358715047362,8.73789903053749,0.0,196.76913297215057
315.0,11.120086971966657,50.920190308321146,711.1358715047362,8.73789903053749,0.0,197.58540679716978
316.0,11.119813941878732,50.919672944730785,711.1358715047362,8.73789903053749,0.0,198.40168062547372
317.0,11.119529251113818,50.919158085678994,711.1358715047362,8.73789903053749,0.0,199.2179544508576
318.0,11.119232957694663,50.91864583566257,711.1358715047362,8.73789903053749,0.0,200.03422827724057
319.0,11.118925121995005,50.91813629864882,711.1358715047362,8.73789903053749,0.0,200.8505021039155
320.0,11.118605806727174,50.91762957805435,711.1358715047362,8.73789903053749,0.0,201.6667759288686
321.0,11.118275076929223,50.91712577672422,711.1358715047362,8.73789903053749,0.0,202.4830497547783
322.0,11.117932999951563,50.91662499691097,711.1358715047362,8.73789903053749,0.0,203.29932358239657
323.0,11.117579645443271,50.91612734025392,711.1358715047362,8.73789903053749,0.0,204.11559740956721
324.0,11.11721508533779,50.91563290775851,711.1358715047362,8.73789903053749,0.0,204.93187123457193
325.0,11.116839393838148,50.9151417997758,711.1358715047362,8.73789903053749,0.0,205.74814506068296
326.0,11.116452647401871,50.91465411598215,711.1358715047362,8.73789903053749,0.0,206.5644188867755
327.0,11.11605492472529,50.91416995535893,711.1358715047362,8.73789903053749,0.0,207.3806927142827
328.0,11.11564630672757,50.91368941617246,711.1358715047362,8.73789903053749,0.0,208.1969665386013
329.0,11.115226876534024,50.91321259595404,711.1358715047362,8.73789903053749,0.0,209.0132403662258
330.0,11.114796719459292,50.912739591480225,711.1358715047362,8.73789903053749,0.0,209.82951419174748
331.0,11.114355922989859,50.912270498753095,711.1358715047362,8.73789903053749,0.0,210.6457880187999
332.0,11.11390457676626,50.911805412980826,711.1358715047362,8.73789903053749,0.0,211.4620618443563
333.0,11.113442772564753,50.91134442855834,711.1358715047362,8.73789903053749,0.0,212.27833566924377
334.0,11.112970604278615,50.91088763904816,711.1358715047362,8.73789903053749,0.0,213.09460949621885
335.0,11.112488167899045,50.91043513716143,711.1358715047362,8.73789903053749,0.0,213.91088332261089
336.0,11.111995561495604,50.90998701473909,711.1358715047362,8.73789903053749,0.0,214.7271571493987
337.0,11.111492885196242,50.9095433627332,711.1358715047362,8.73789903053749,0.0,215.54343097579564
338.0,11.110980241166914,50.90910427118855,711.1358715047362,8.73789903053749,0.0,216.35970480146833
339.0,11.11045773359075,50.9086698292243,711.1358715047362,8.73789903053749,0.0,217.17597862771072
340.0,11.109925468646964,50.908240125016,711.1358715047362,8.73789903053749,0.0,217.9922524535154
341.0,11.109383554489114,50.907815245777584,711.1358715047362,8.73789903053749,0.0,218.80852628071807
342.0,11.108832101223243,50.907395277743746,711.1358715047362,8.73789903053749,0.0,219.6248001075807
343.0,11.108271220885428,50.906980306152384,711.1358715047362,8.73789903053749,0.0,220.44107393360156
344.0,11.107701027419012,50.90657041522734,711.1358715047362,8.73789903053749,0.0,221.25734775914415
345.0,11.10712163665147,50.9061656881613,711.1358715047362,8.73789903053749,0.0,222.07362158478895
346.0,11.106533166270822,50.90576620709888,711.1358715047362,8.73789903053749,0.0,222.88989541192657
347.0,11.105935735801836,50.905372053119976,711.1358715047362,8.73789903053749,0.0,223.70616923761685
348.0,11.10532946658168,50.904983306223315,711.1358715047362,8.73789903053749,0.0,224.52244306270495
349.0,11.104714481735272,50.904600045310204,711.1358715047362,8.73789903053749,0.0,225.33871689008393
350.0,11.104090906150361,50.90422234816853,711.1358715047362,8.73789903053749,0.0,226.15499071717758
351.0,11.103458866452172,50.90385029145694,711.1358715047362,8.73789903053749,0.0,226.97126454155642
352.0,11.102818490977626,50.90348395068932,711.1358715047362,8.73789903053749,0.0,227.78753836777656
353.0,11.102169909749364,50.903123400219464,711.1358715047362,8.73789903053749,0.0,228.60381219642622
354.0,11.101513254449458,50.902768713225925,711.1358715047362,8.73789903053749,0.0,229.42008602036103
355.0,11.100848658392579,50.90241996169726,711.1358715047362,8.73789903053749,0.0,230.23635984671364
356.0,11.100176256498997,50.90207721641735,711.1358715047362,8.73789903053749,0.0,231.05263367346447
357.0,11.099496185267299,50.90174054695104,711.1358715047362,8.73789903053749,0.0,231.8689075000722
358.0,11.098808582746642,50.90141002163004,711.1358715047362,8.73789903053749,0.0,232.6851813265369
359.0,11.098113588508852,50.901085707539046,711.1358715047362,8.73789903053749,0.0,233.50145515210681
360.0,11.097411343620024,50.90076767050211,711.1358715047362,8.73789903053749,0.0,234.3177289778796
361.0,11.096701990612104,50.90045597506933,711.1358715047362,8.73789903053749,0.0,235.13400280474434
362.0,11.095985673453896,50.900150684503664,711.1358715047362,8.73789903053749,0.0,235.9502766305019
363.0,11.095262537521961,50.89985186076817,711.1358715047362,8.73789903053749,0.0,236.7665504567841
364.0,11.094532729571142,50.8995595645134,711.1358715047362,8.73789903053749,0.0,237.58282428346394
365.0,11.093796397704864,50.89927385506506,711.1358715047362,8.73789903053749,0.0,238.39909810882074
366.0,11.093053691345176,50.898994790412026,711.1358715047362,8.73789903053749,0.0,239.215371936088
367.0,11.092304761202485,50.89872242719452,711.1358715047362,8.73789903053749,0.0,240.03164576195462
368.0,11.091549759245027,50.89845682069265,711.1358715047362,8.73789903053749,0.0,240.84791958772422
369.0,11.090788838668146,50.89819802481519,711.1358715047362,8.73789903053749,0.0,241.66419341460585
370.0,11.090022153863288,50.897946092088596,711.1358715047362,8.73789903053749,0.0,242.48046724087328
371.0,11.089249860386758,50.897701073646395,711.1358715047362,6.0,0.0,243.2967410669644
372.0,11.088472114928237,50.897463019218776,711.1358715047362,3.0,0.0,244.11301489401484
373.0,11.087699250905315,50.8972187275358,711.1358715047362,0,0.0,243.38219710234557
374.0,11.08692639499125,50.89697443075033,711.1358715047362,0,0.0,243.38159734596496
375.0,11.086153547186065,50.89673012886249,711.1358715047362,0,0.0,243.380997598952
376.0,11.085380707489765,50.89648582187235,711.1358715047362,0,0.0,243.38039786078798
377.0,11.084607875902366,50.89624150978002,711.1358715047362,0,0.0,243.37979812843741
378.0,11.083835052423883,50.89599719258561,711.1358715047362,0,0.0,243.3791984085363
379.0,11.08306223705433,50.89575287028919,711.1358715047362,0,0.0,243.37859869235672
380.0,11.082289429793718,50.89550854289088,711.1358715047362,0,0.0,243.3779989879659
381.0,11.081516630642062,50.89526421039078,711.1358715047362,0,0.0,243.37739929103878
382.0,11.080743839599377,50.89501987278897,711.1358715047362,0,0.0,243.37679960187398
383.0,11.079971056665674,50.89477553008555,711.1358715047362,0,0.0,243.37619992066027
384.0,11.079198281840968,50.89453118228064,711.1358715047362,0,0.0,243.3756002498975
385.0,11.078425515125273,50.894286829374316,711.1358715047362,0,0.0,243.37500058549693
386.0,11.0776527565186,50.89404247136668,711.1358715047362,0,0.0,243.37440093019472
387.0,11.076880006020966,50.893798108257855,711.1358715047362,0,0.0,243.37380128494948
388.0,11.076107263632386,50.8935537400479,711.1358715047362,0,0.0,243.37320164432043
389.0,11.075334529352865,50.89330936673693,711.1358715047362,0,0.0,243.3726020151793
390.0,11.074561803182423,50.893064988325044,711.1358715047362,0,0.0,243.37200239269814
391.0,11.073789085121074,50.89282060481234,711.1358715047362,0,0.0,243.37140277962828
392.0,11.07301637516883,50.89257621619892,711.1358715047362,0,0.0,243.3708031746021
393.0,11.072243673325705,50.89233182248488,711.1358715047362,0,0.0,243.37020357818494
394.0,11.071470979591707,50.892087423670304,711.1358715047362,0,0.0,243.3696039897638
395.0,11.070698293966858,50.89184301975531,711.1358715047362,0,0.0,243.3690044098567
396.0,11.069925616451169,50.89159861073999,711.1358715047362,0,0.0,243.3684048381967
397.0,11.069152947044651,50.89135419662444,711.1358715047362,0,0.0,243.36780527549092
398.0,11.068380285747317,50.89110977740875,711.1358715047362,0,0.0,243.367205719884
399.0,11.067607632559184,50.89086535309303,711.1358715047362,0,0.0,243.36660617373383
400.0,11.066834987480267,50.89062092367737,711.1358715047362,0,0.0,243.36600663538937
401.0,11.06606235051057,50.89037648916187,711.1358715047362,0,0.0,243.36540710653327
402.0,11.065289721650114,50.89013204954663,711.1358715047362,0,0.0,243.3648075842874
403.0,11.06451710089891,50.889887604831756,711.1358715047362,0,0.0,243.36420807253546
404.0,11.063744488256972,50.889643155017325,711.1358715047362,0,0.0,243.3636085664026
405.0,11.062971883724314,50.88939870010345,711.1358715047362,0,0.0,243.36300907035474
406.0,11.06219928730095,50.889154240090235,711.1358715047362,0,0.0,243.36240958351053
407.0,11.061426698986894,50.88890977497776,711.1358715047362,0,0.0,243.36181010366886
408.0,11.060654118782153,50.88866530476614,711.1358715047362,0,0.0,243.36121063292072
409.0,11.059881546686746,50.88842082945545,711.1358715047362,0,0.0,243.3606111684354
410.0,11.059108982700685,50.888176349045814,711.1358715047362,0,0.0,243.36001171628214
411.0,11.058336426823988,50.88793186353732,711.1358715047362,0,0.0,243.3594122685043
412.0,11.057563879056659,50.88768737293007,711.1358715047362,0,0.0,243.35881283219393
413.0,11.056791339398718,50.88744287722415,711.1358715047362,0,0.0,243.3582134037016
414.0,11.056018807850174,50.88719837641966,711.1358715047362,0,0.0,243.35761398055982
415.0,11.055246284411043,50.886953870516706,711.1358715047362,0,0.0,243.35701456880537
416.0,11.05447376908134,50.88670935951539,711.1358715047362,0,0.0,243.35641516620512
417.0,11.053701261861077,50.886464843415794,711.1358715047362,0,0.0,243.35581576886023
418.0,11.052928762750266,50.88622032221804,711.1358715047362,0,0.0,243.3552163823991
419.0,11.052156271748917,50.88597579592219,711.1358715047362,0,0.0,243.3546170022933
420.0,11.05138378885705,50.885731264528374,711.1358715047362,0,0.0,243.35401763198553
421.0,11.050611314074676,50.88548672803668,711.1358715047362,0,0.0,243.3534182707212
422.0,11.049838847401805,50.88524218644721,711.1358715047362,0,0.0,243.35281891590614
423.0,11.04906638883845,50.88499763976004,711.1358715047362,0,0.0,243.35221956988266
424.0,11.048293938384631,50.88475308797529,711.1358715047362,0,0.0,243.3516202331685
425.0,11.047521496040355,50.88450853109306,711.1358715047362,0,0.0,243.35102090548182
426.0,11.046749061805638,50.88426396911343,711.1358715047362,0,0.0,243.3504215833625
427.0,11.045976635680493,50.884019402036515,711.1358715047362,0,0.0,243.34982227247093
428.0,11.045204217664931,50.88377482986241,711.1358715047362,0,0.0,243.34922296903312
429.0,11.044431807758968,50.8835302525912,711.1358715047362,0,0.0,243.34862367259336
430.0,11.043659405962613,50.883285670222996,711.1358715047362,0,0.0,243.3480243861385
431.0,11.042887012275886,50.883041082757906,711.1358715047362,0,0.0,243.34742510853573
432.0,11.042114626698794,50.882796490196,711.1358715047362,0,0.0,243.3468258379777
433.0,11.041342249231352,50.882551892537386,711.1358715047362,0,0.0,243.34622657526563
434.0,11.040569879873575,50.88230728978219,711.1358715047362,0,0.0,243.34562732333916
435.0,11.039797518625472,50.88206268193046,711.1358715047362,0,0.0,243.34502807691592
436.0,11.039025165487057,50.88181806898233,711.1358715047362,0,0.0,243.34442884042903
437.0,11.038252820458347,50.88157345093789,711.1358715047362,0,0.0,243.34382961284018
438.0,11.037480483539351,50.881328827797226,711.1358715047362,0,0.0,243.3432303917447
439.0,11.036708154730082,50.88108419956046,711.1358715047362,0,0.0,243.34263118138637
440.0,11.035935834030559,50.88083956622767,711.1358715047362,0,0.0,243.34203197733171
441.0,11.035163521440786,50.88059492779895,711.1358715047362,0,0.0,243.34143278241083
442.0,11.034391216960785,50.88035028427443,711.1358715047362,0,0.0,243.34083359698428
443.0,11.033618920590563,50.880105635654175,711.1358715047362,0,0.0,243.3402344183488
444.0,11.032846632330134,50.87986098193829,711.1358715047362,0,0.0,243.33963524895591
445.0,11.032074352179514,50.87961632312688,711.1358715047362,0,0.0,243.33903608646307
446.0,11.031302080138712,50.87937165922004,711.1358715047362,0,0.0,243.33843693519367
447.0,11.030529816207745,50.87912699021786,711.1358715047362,0,0.0,243.3378377895819
448.0,11.029757560386619,50.87888231612046,711.1358715047362,0,0.0,243.33723865310236
449.0,11.028985312675355,50.87863763692792,711.1358715047362,0,0.0,243.33663952586423
450.0,11.028213073073962,50.87839295264033,711.1358715047362,0,0.0,243.33604040616984
451.0,11.027440841582454,50.87814826325781,711.1358715047362,0,0.0,243.33544129461637
452.0,11.026668618200842,50.87790356878045,711.1358715047362,0,0.0,243.33484219180093
453.0,11.025896402929144,50.87765886920834,711.1358715047362,0,0.0,243.334243098918
454.0,11.025124195767367,50.87741416454159,711.1358715047362,0,0.0,243.33364401268193
455.0,11.024351996715525,50.87716945478028,711.1358715047362,0,0.0,243.33304493334393
456.0,11.023579805773634,50.876924739924526,711.1358715047362,0,0.0,243.33244586458244
457.0,11.022807622941704,50.876680019974415,711.1358715047362,0,0.0,243.33184680430656
458.0,11.022035448219748,50.87643529493005,711.1358715047362,0,0.0,243.33124775113214
459.0,11.021263281607782,50.876190564791536,711.1358715047362,0,0.0,243.33064870858084
460.0,11.020491123105815,50.87594582955896,711.1358715047362,0,0.0,243.3300496719832
461.0,11.01971897271386,50.875701089232415,711.1358715047362,0,0.0,243.32945064396506
462.0,11.018946830431938,50.87545634381202,711.1358715047362,0,0.0,243.32885162623802
463.0,11.01817469626005,50.87521159329784,711.1358715047362,0,0.0,243.32825261415076
464.0,11.017402570198216,50.87496683769002,711.1358715047362,0,0.0,243.32765361348686
465.0,11.016630452246446,50.87472207698861,711.1358715047362,0,0.0,243.32705461847695
466.0,11.015858342404755,50.874477311193736,711.1358715047362,0,0.0,243.326455633098
467.0,11.015086240673153,50.874232540305485,711.1358715047362,0,0.0,243.32585665595124
468.0,11.014314147051655,50.87398776432397,711.1358715047362,0,0.0,243.32525768834034
469.0,11.013542061540274,50.873742983249265,711.1358715047362,0,0.0,243.32465872617863
470.0,11.01276998413902,50.873498197081496,711.1358715047362,0,0.0,243.32405977613087
471.0,11.011997914847909,50.873253405820726,711.1358715047362,0,0.0,243.3234608302427
472.0,11.011225853666954,50.873008609467085,711.1358715047362,0,0.0,243.32286189632597
473.0,11.010453800596164,50.872763808020665,711.1358715047362,0,0.0,243.32226297004286
474.0,11.009681755635551,50.872519001481535,711.1358715047362,0,0.0,243.32166404930268
475.0,11.008909718785137,50.87227418984983,711.1358715047362,0,0.0,243.32106514119243
476.0,11.008137690044924,50.87202937312563,711.1358715047362,0,0.0,243.3204662370223
477.0,11.00736566941493,50.87178455130904,711.1358715047362,0,0.0,243.31986734677085
478.0,11.00659365689517,50.87153972440015,711.1358715047362,0,0.0,243.3192684596251
479.0,11.00582165248565,50.87129489239907,711.1358715047362,0,0.0,243.31866958424524
480.0,11.005049656186387,50.87105005530589,711.1358715047362,0,0.0,243.31807071645017
481.0,11.00427766799739,50.87080521312069,711.1358715047362,0,0.0,243.3174718540073
482.0,11.003505687918679,50.8705603658436,711.1358715047362,0,0.0,243.31687300387946
483.0,11.00273371595026,50.8703155134747,711.1358715047362,0,0.0,243.31627415984272
484.0,11.001961752092146,50.8700706560141,711.1358715047362,0,0.0,243.31567532662746
485.0,11.001189796344356,50.86982579346188,711.1358715047362,0,0.0,243.31507649846492
486.0,11.000417848706894,50.86958092581815,711.1358715047362,0,0.0,243.3144776819101
487.0,10.99964590917978,50.86933605308302,711.1358715047362,0,0.0,243.31387887300045
488.0,10.998873977763022,50.86909117525656,711.1358715047362,0,0.0,243.31328006967834
489.0,10.998102054456632,50.86884629233887,711.1358715047362,0,0.0,243.31268127712923
490.0,10.997330139260628,50.868601404330086,711.1358715047362,0,0.0,243.31208249445706
491.0,10.996558232175015,50.86835651123025,711.1358715047362,0,0.0,243.31148371528153
492.0,10.995786333199813,50.86811161303952,711.1358715047362,0,0.0,243.31088495006833
493.0,10.995014442335032,50.86786670975795,711.1358715047362,0,0.0,243.3102861894037
494.0,10.994242559580682,50.867621801385646,711.1358715047362,0,0.0,243.30968743910327
495.0,10.993470684936774,50.86737688792271,711.1358715047362,0,0.0,243.3090886954887
496.0,10.99269881840333,50.867131969369254,711.1358715047362,0,0.0,243.30848996211006
497.0,10.991926959980354,50.866887045725356,711.1358715047362,0,0.0,243.30789123585754
498.0,10.991155109667861,50.866642116991116,711.1358715047362,0,0.0,243.30729251688757
499.0,10.990383267465862,50.86639718316663,711.1358715047362,0,0.0,243.30669380873564
500.0,10.989611433374373,50.86615224425202,711.1358715047362,0,0.0,243.30609510827347
501.0,10.988839607393404,50.865907300247365,711.1358715047362,0,0.0,243.30549641613106
502.0,10.988067789522967,50.86566235115276,711.1358715047362,0,0.0,243.30489773082954
503.0,10.987295979763076,50.86541739696831,711.1358715047362,0,0.0,243.304299056094
504.0,10.986524178113743,50.86517243769411,711.1358715047362,0,0.0,243.30370038909473
505.0,10.98575238457498,50.864927473330255,711.1358715047362,0,0.0,243.30310172892143
506.0,10.984980599146802,50.864682503876864,711.1358715047362,0,0.0,243.3025030794225
507.0,10.984208821829215,50.864437529334,711.1358715047362,0,0.0,243.30190443725155
508.0,10.983437052622241,50.86419254970178,711.1358715047362,0,0.0,243.3013058019202
509.0,10.98266529152588,50.86394756498029,711.1358715047362,0,0.0,243.3007071773431
510.0,10.981893538540158,50.863702575169654,711.1358715047362,0,0.0,243.30010856060997
511.0,10.981121793665078,50.86345758026995,711.1358715047362,0,0.0,243.29950995184856
512.0,10.980350056900654,50.86321258028128,711.1358715047362,0,0.0,243.29891135135722
513.0,10.979578328246903,50.862967575203754,711.1358715047362,0,0.0,243.29831276050072
514.0,10.978806607703833,50.86272256503744,711.1358715047362,0,0.0,243.2977141750703
515.0,10.978034895271456,50.862477549782454,711.1358715047362,0,0.0,243.2971156000136
516.0,10.977263190949788,50.862232529438906,711.1358715047362,0,0.0,243.29651703402703
517.0,10.976491494738838,50.861987504006876,711.1358715047362,0,0.0,243.29591847531907
518.0,10.975719806638619,50.861742473486466,711.1358715047362,0,0.0,243.29531992503627
519.0,10.974948126649146,50.86149743787778,711.1358715047362,0,0.0,243.29472138368084
520.0,10.974176454770426,50.8612523971809,711.1358715047362,0,0.0,243.29412284914832
521.0,10.973404791002478,50.861007351395955,711.1358715047362,0,0.0,243.29352432583647
522.0,10.972633135345305,50.86076230052301,711.1358715047362,0,0.0,243.29292580829517
523.0,10.97186148779893,50.86051724456218,711.1358715047362,0,0.0,243.2923273008887
524.0,10.971089848363357,50.860272183513565,711.1358715047362,0,0.0,243.29172880104375
525.0,10.970318217038603,50.86002711737724,711.1358715047362,0,0.0,243.291130308286
526.0,10.969546593824683,50.859782046153335,711.1358715047362,0,0.0,243.29053182624546
527.0,10.9687749787216,50.859536969841926,711.1358715047362,0,0.0,243.28993335141985
528.0,10.968003371729372,50.85929188844312,711.1358715047362,0,0.0,243.2893348845291
529.0,10.967231772848015,50.859046801957014,711.1358715047362,0,0.0,243.28873642695686
530.0,10.966460182077533,50.85880171038371,711.1358715047362,0,0.0,243.2881379776984
531.0,10.965688599417941,50.858556613723295,711.1358715047362,0,0.0,243.28753953621782
532.0,10.964917024869253,50.85831151197586,711.1358715047362,0,0.0,243.28694110256237
533.0,10.964145458431481,50.85806640514154,711.1358715047362,0,0.0,243.28634267932387
534.0,10.963373900104639,50.8578212932204,711.1358715047362,0,0.0,243.28574426196252
535.0,10.962602349888737,50.85757617621254,711.1358715047362,0,0.0,243.28514585467175
536.0,10.96183080778378,50.85733105411806,711.1358715047362,0,0.0,243.28454745563204
537.0,10.961059273789795,50.857085926937074,711.1358715047362,0,0.0,243.2839490650889
538.0,10.960287747906781,50.856840794669665,711.1358715047362,0,0.0,243.2833506819008
539.0,10.95951623013476,50.856595657315935,711.1358715047362,0,0.0,243.28275230744595
540.0,10.958744720473737,50.85635051487598,711.1358715047362,0,0.0,243.28215394194723
541.0,10.957973218923728,50.856105367349905,711.1358715047362,0,0.0,243.28155558511992
542.0,10.957201725484742,50.85586021473778,711.1358715047362,0,0.0,243.28095723462292
543.0,10.956430240156795,50.85561505703975,711.1358715047362,0,0.0,243.28035889493404
544.0,10.955658762939898,50.85536989425588,711.1358715047362,0,0.0,243.27976056247067
545.0,10.95488729383406,50.85512472638628,711.1358715047362,0,0.0,243.27916223852162
546.0,10.954115832839296,50.854879553431026,711.1358715047362,0,0.0,243.27856392154655
547.0,10.953344379955617,50.85463437539025,711.1358715047362,0,0.0,243.27796561588087
548.0,10.952572935183035,50.85438919226402,711.1358715047362,0,0.0,243.2773673160421
549.0,10.951801498521565,50.854144004052465,711.1358715047362,0,0.0,243.27676902636563
550.0,10.951030069971216,50.85389881075565,711.1358715047362,0,0.0,243.27617074396085
551.0,10.950258649531996,50.8536536123737,711.1358715047362,0,0.0,243.27557247016395
552.0,10.949487237203927,50.85340840890668,711.1358715047362,0,0.0,243.2749742039033
553.0,10.948715832987013,50.85316320035473,711.1358715047362,0,0.0,243.2743759480887
554.0,10.947944436881272,50.852917986717934,711.1358715047362,0,0.0,243.27377770084775
555.0,10.947173048886711,50.85267276799636,711.1358715047362,0,0.0,243.27317945803463
556.0,10.946401669003343,50.85242754419014,711.1358715047362,0,0.0,243.27258122717336
557.0,10.94563029723118,50.85218231529936,711.1358715047362,0,0.0,243.27198300358228
558.0,10.944858933570233,50.85193708132411,711.1358715047362,0,0.0,243.2713847881568
559.0,10.94408757802052,50.85169184226451,711.1358715047362,0,0.0,243.27078658185349
560.0,10.943316230582044,50.85144659812063,711.1358715047362,0,0.0,243.27018838315195
561.0,10.942544891254824,50.8512013488926,711.1358715047362,0,0.0,243.26959019432525
562.0,10.941773560038868,50.85095609458048,711.1358715047362,0,0.0,243.26899201121404
563.0,10.941002236934192,50.85071083518441,711.1358715047362,0,0.0,243.26839383906253
564.0,10.940230921940806,50.85046557070446,711.1358715047362,0,0.0,243.2677956729858
565.0,10.939459615058718,50.85022030114071,711.1358715047362,0,0.0,243.2671975158126
566.0,10.938688316287942,50.849975026493304,711.1358715047362,0,0.0,243.2665993695984
567.0,10.937917025628495,50.84972974676232,711.1358715047362,0,0.0,243.26600123000793
568.0,10.937145743080382,50.849484461947846,711.1358715047362,0,0.0,243.2654030975293
569.0,10.936374468643619,50.84923917204999,711.1358715047362,0,0.0,243.26480497516098
570.0,10.93560320231822,50.84899387706885,711.1358715047362,0,0.0,243.26420686021635
571.0,10.934831944104188,50.848748577004514,711.1358715047362,0,0.0,243.26360875406527
572.0,10.934060694001541,50.8485032718571,711.1358715047362,0,0.0,243.26301065664
573.0,10.933289452010294,50.84825796162669,711.1358715047362,0,0.0,243.26241256767565
574.0,10.93251821813045,50.848012646313364,711.1358715047362,0,0.0,243.261814483529
575.0,10.93174699236203,50.84776732591726,711.1358715047362,0,0.0,243.26121641288324
576.0,10.93097577470504,50.84752200043845,711.1358715047362,0,0.0,243.26061834875077
577.0,10.930204565159494,50.84727666987705,711.1358715047362,0,0.0,243.26002029273235
578.0,10.929433363725403,50.84703133423314,711.1358715047362,0,0.0,243.25942224482782
579.0,10.92866217040278,50.84678599350683,711.1358715047362,0,0.0,243.25882420627832
580.0,10.927890985191633,50.846540647698205,711.1358715047362,0,0.0,243.25822617508928
581.0,10.927119808091978,50.84629529680737,711.1358715047362,0,0.0,243.25762815182355
582.0,10.926348639103828,50.84604994083443,711.1358715047362,0,0.0,243.25703013855664
583.0,10.925577478227186,50.84580457977946,711.1358715047362,0,0.0,243.2564321307027
584.0,10.924806325462075,50.845559213642595,711.1358715047362,0,0.0,243.25583413625245
585.0,10.924035180808502,50.845313842423906,711.1358715047362,0,0.0,243.25523614627184
586.0,10.923264044266475,50.845068466123486,711.1358715047362,0,0.0,243.25463816514286
587.0,10.922492915836012,50.844823084741456,711.1358715047362,0,0.0,243.25404019308223
588.0,10.92172179551712,50.844577698277895,711.1358715047362,0,0.0,243.25344222872639
589.0,10.920950683309812,50.844332306732916,711.1358715047362,0,0.0,243.25284427466627
590.0,10.9201795792141,50.8440869101066,711.1358715047362,0,0.0,243.25224632658075
591.0,10.919408483229995,50.84384150839905,711.1358715047362,0,0.0,243.25164838780017
592.0,10.91863739535751,50.84359610161038,711.1358715047362,0,0.0,243.25105045812086
593.0,10.91786631559666,50.843350689740674,711.1358715047362,0,0.0,243.25045253551434
594.0,10.917095243947449,50.84310527279003,711.1358715047362,0,0.0,243.24985462224612
595.0,10.916324180409894,50.842859850758536,711.1358715047362,0,0.0,243.24925671595534
596.0,10.915553124984005,50.84261442364631,711.1358715047362,0,0.0,243.24865882035218
597.0,10.914782077669791,50.84236899145344,711.1358715047362,0,0.0,243.24806093076967
598.0,10.914011038467269,50.84212355418002,711.1358715047362,0,0.0,243.24746305133846
599.0,10.913240007376446,50.84187811182616,711.1358715047362,0,0.0,243.24686517990818
600.0,10.912468984397337,50.841632664391945,711.1358715047362,0,0.0,243.24626731614615
601.0,10.911697969529952,50.84138721187749,711.1358715047362,0,0.0,243.24566946182935
602.0,10.910926962774301,50.841141754282866,711.1358715047362,0,0.0,243.24507161417665
603.0,10.9101559641304,50.8408962916082,711.1358715047362,0,0.0,243.24447377786777
604.0,10.909384973598254,50.840650823853565,711.1358715047362,0,0.0,243.24387594563166
605.0,10.908613991177882,50.84040535101907,711.1358715047362,0,0.0,243.24327812464398
606.0,10.907843016869288,50.84015987310482,711.1358715047362,0,0.0,243.24268031234766
607.0,10.907072050672491,50.8399143901109,711.1358715047362,0,0.0,243.24208250647683
608.0,10.906301092587496,50.83966890203741,711.1358715047362,0,0.0,243.24148471009727
609.0,10.905530142614317,50.83942340888446,711.1358715047362,0,0.0,243.2408869232696
610.0,10.90475920075297,50.83917791065214,711.1358715047362,0,0.0,243.24028914395217
611.0,10.90398826700346,50.83893240734054,711.1358715047362,0,0.0,243.2396913716904
612.0,10.9032173413658,50.83868689894977,711.1358715047362,0,0.0,243.23909360872898
613.0,10.902446423840004,50.838441385479925,711.1358715047362,0,0.0,243.23849585472175
614.0,10.901675514426085,50.8381958669311,711.1358715047362,0,0.0,243.23789810916662
615.0,10.900904613124045,50.83795034330339,711.1358715047362,0,0.0,243.23730037025962
616.0,10.900133719933903,50.837704814596904,711.1358715047362,0,0.0,243.23670264210998
617.0,10.89936283485567,50.83745928081172,711.1358715047362,0,0.0,243.23610491986864
618.0,10.898591957889357,50.83721374194796,711.1358715047362,0,0.0,243.23550720846595
619.0,10.897821089034975,50.83696819800571,711.1358715047362,0,0.0,243.23490950367625
620.0,10.897050228292537,50.83672264898507,711.1358715047362,0,0.0,243.2343118078868
621.0,10.89627937566205,50.83647709488612,711.1358715047362,0,0.0,243.2337141197478
622.0,10.89550853114353,50.836231535709,711.1358715047362,0,0.0,243.2331164421006
623.0,10.894737694736987,50.83598597145376,711.1358715047362,0,0.0,243.23251876957357
624.0,10.893966866442433,50.83574040212053,711.1358715047362,0,0.0,243.2319211087791
625.0,10.893196046259876,50.8354948277094,711.1358715047362,0,0.0,243.23132345414223
626.0,10.892425234189332,50.83524924822046,711.1358715047362,0,0.0,243.23072580866
627.0,10.891654430230808,50.835003663653815,711.1358715047362,0,0.0,243.2301281715189
628.0,10.890883634384318,50.83475807400956,711.1358715047362,0,0.0,243.229530542386
629.0,10.890112846649872,50.8345124792878,711.1358715047362,0,0.0,243.22893292269228
630.0,10.889342067027481,50.83426687948862,711.1358715047362,0,0.0,243.22833530990778
631.0,10.888571295517163,50.83402127461213,711.1358715047362,0,0.0,243.22773770597843
632.0,10.887800532118922,50.83377566465842,711.1358715047362,0,0.0,243.22714011103352
633.0,10.887029776832769,50.8335300496276,711.1358715047362,0,0.0,243.22654252483508
634.0,10.886259029658717,50.83328442951974,711.1358715047362,0,0.0,243.22594494425638
635.0,10.88548829059678,50.83303880433497,711.1358715047362,0,0.0,243.22534737515682
636.0,10.884717559646965,50.83279317407337,711.1358715047362,0,0.0,243.22474981360955
637.0,10.883946836809285,50.83254753873505,711.1358715047362,0,0.0,243.2241522599603
638.0,10.88317612208375,50.832301898320104,711.1358715047362,0,0.0,243.22355471565322
639.0,10.882405415470375,50.83205625282861,711.1358715047362,0,0.0,243.22295717756163
640.0,10.88163471696917,50.83181060226069,711.1358715047362,0,0.0,243.22235965005288
641.0,10.880864026580142,50.83156494661643,711.1358715047362,0,0.0,243.22176212964132
642.0,10.880093344303305,50.831319285895944,711.1358715047362,0,0.0,243.22116461962185
643.0,10.879322670138672,50.8310736200993,711.1358715047362,0,0.0,243.22056711476625
644.0,10.878552004086252,50.830827949226624,711.1358715047362,0,0.0,243.2199696195975
645.0,10.877781346146058,50.830582273278,711.1358715047362,0,0.0,243.21937213372183
646.0,10.877010696318104,50.830336592253545,711.1358715047362,0,0.0,243.21877465773574
647.0,10.876240054602393,50.830090906153316,711.1358715047362,0,0.0,243.21817718466843
648.0,10.875469420998938,50.829845214977446,711.1358715047362,0,0.0,243.21757972511833
649.0,10.874698795507756,50.829599518726035,711.1358715047362,0,0.0,243.2169822729751
650.0,10.873928178128853,50.82935381739915,711.1358715047362,0,0.0,243.21638482698455
651.0,10.873157568862243,50.82910811099692,711.1358715047362,0,0.0,243.21578739113335
652.0,10.872386967707934,50.82886239951942,711.1358715047362,0,0.0,243.2151899633197
653.0,10.871616374665942,50.82861668296677,711.1358715047362,0,0.0,243.21459254311537
654.0,10.870845789736276,50.82837096133905,711.1358715047362,0,0.0,243.21399513269077
655.0,10.870075212918941,50.82812523463637,711.1358715047362,0,0.0,243.21339773075715
656.0,10.86930464421396,50.82787950285882,711.1358715047362,0,0.0,243.21280033618137
657.0,10.868534083621332,50.82763376600649,711.1358715047362,0,0.0,243.21220294968978
658.0,10.867763531141074,50.8273880240795,711.1358715047362,0,0.0,243.21160557209492
659.0,10.866992986773198,50.82714227707793,711.1358715047362,0,0.0,243.21100820418357
660.0,10.866222450517716,50.826896525001885,711.1358715047362,0,0.0,243.21041084188673
661.0,10.865451922374636,50.826650767851476,711.1358715047362,0,0.0,243.2098134906091
662.0,10.864681402343967,50.826405005626754,711.1358715047362,0,0.0,243.2092161447899
663.0,10.863910890425723,50.826159238327875,711.1358715047362,0,0.0,243.2086188115417
664.0,10.863140386619916,50.82591346595489,711.1358715047362,0,0.0,243.2080214813172
665.0,10.862369890926553,50.82566768850795,711.1358715047362,0,0.0,243.20742416624023
666.0,10.861599403345654,50.8254219059871,711.1358715047362,0,0.0,243.20682685280295
667.0,10.86082892387722,50.82517611839246,711.1358715047362,0,0.0,243.20622955157694
668.0,10.860058452521265,50.82493032572412,711.1358715047362,0,0.0,243.2056322567032
669.0,10.8592879892778,50.82468452798219,711.1358715047362,0,0.0,243.20503497300248
670.0,10.85851753414684,50.82443872516677,711.1358715047362,0,0.0,243.2044376954633
671.0,10.857747087128391,50.82419291727795,711.1358715047362,0,0.0,243.20384042705592
672.0,10.856976648222465,50.82394710431581,711.1358715047362,0,0.0,243.20324316603785
673.0,10.856206217429074,50.82370128628049,711.1358715047362,0,0.0,243.20264591480816
674.0,10.855435794748228,50.82345546317205,711.1358715047362,0,0.0,243.20204867117047
675.0,10.854665380179938,50.8232096349906,711.1358715047362,0,0.0,243.20145143452788
