Time,Longitude  ,Latitude,Altitude,Roll (deg),Pitch (deg),Yaw (deg)
0.0,10.9398,50.9815,315.7728,0,0.0,0.0
1.0,10.939799999999991,50.9815,316.4326488056778,0,5.0,270.0
2.0,10.939799999999991,50.9815,317.65234846398425,0,5.0,0.0
3.0,10.939799999999991,50.9815,319.4319027372045,0,5.0,0.0
4.0,10.939799999999991,50.9815,321.7713171029663,0,5.0,0.0
5.0,10.939799999999991,50.9815,324.6705987542525,0,5.0,0.0
6.0,10.939799999999991,50.9815,328.12975659941765,0,5.0,0.0
7.0,10.939799999999991,50.9815,332.148801262208,0,5.0,0.0
8.0,10.939799999999991,50.9815,336.7277450817859,0,5.0,0.0
9.0,10.939799999999991,50.9815,341.8666021127578,0,5.0,0.0
10.0,10.939799999999991,50.9815,347.5653881252063,0,5.0,0.0
11.0,10.939799999999991,50.9815,353.8241206047261,0,5.0,0.0
12.0,10.939799999999991,50.9815,360.6428187524636,0,5.0,0.0
13.0,10.93983925788109,50.981496526437226,367.4152189338912,0,5.0,97.99999998464602
14.0,10.939888000776818,50.98149221363183,374.2413419197679,0,5.0,97.99999999733086
15.0,10.939946228684363,50.981487061583046,381.12120864470023,0,5.0,98.00000000524591
16.0,10.940013941600427,50.981481070290116,388.05484020720496,0,5.0,97.99999998675793
17.0,10.940091139521172,50.981474239752245,395.0422578697719,0,5.0,98.00000000127875
18.0,10.940177822442308,50.98146656996868,402.0834830589276,0,5.0,97.99999999681859
19.0,10.940273990358946,50.98145806093865,409.1785373652994,0,5.0,98.00000000048408
20.0,10.940379643265743,50.981448712661376,416.3274425436799,0,5.0,97.99999999489046
21.0,10.940494781156815,50.98143852513609,423.53022051309205,0,5.0,97.99999999388422
22.0,10.940619404025739,50.98142749836203,430.7868933568544,0,5.0,98.00000000284348
23.0,10.940782331877472,50.981413082288135,437.9799321300599,0,-5.0,98.00000000127426
24.0,10.94097025491115,50.98139645458116,445.10935888230557,0,-5.0,98.00000000066859
25.0,10.941183173098807,50.98137761523576,452.1751954664212,0,-5.0,98.0000000012605
26.0,10.941421086408866,50.9813565642466,459.17746353853835,0,-5.0,97.99999999796722
27.0,10.941683994806198,50.98133330160833,466.1161845581586,0,-5.0,98.00000000427349
28.0,10.94197189825212,50.98130782731563,472.9913797882212,0,-5.0,97.99999999837485
29.0,10.942284796704342,50.981280141363165,479.80307029517036,0,-5.0,97.99999999965684
30.0,10.942622690117048,50.98125024374557,486.5512769490213,0,-5.0,97.99999999948994
31.0,10.942985578440783,50.98121813445752,493.2360204234264,0,-5.0,98.0000000011537
32.0,10.943373461622599,50.98118381349368,499.8573211957402,0,-5.0,97.99999999907891
33.0,10.943786339605907,50.98114728084872,506.4151995470842,0,-5.0,97.99999999668643
34.0,10.944224212330596,50.98110853651727,512.9096755624106,0,-5.0,98.00000000145263
35.0,10.944687079732944,50.981067580494006,519.3407691305656,0,-5.0,98.00000000071213
36.0,10.945174941745648,50.9810244127736,525.7084999443524,0,-5.0,98.0000000000685
37.0,10.945663037458331,50.98098122433396,532.0128875005933,0,-5.0,97.99999999888405
38.0,10.946151132717006,50.980938035894305,538.2539511019764,0,-5.0,98.00000000142614
39.0,10.946639227521644,50.98089484745466,544.4317098571345,0,-5.0,98.0000000009345
40.0,10.947127321872244,50.98085165901501,550.5461826807042,0,-5.0,97.99999999993099
41.0,10.947615415768809,50.98080847057537,556.5973882933864,0,-5.0,97.9999999983126
42.0,10.948103509211364,50.98076528213573,562.5853452220048,0,-5.0,98.00000000037147
43.0,10.948591602199883,50.98072209369609,568.5100717995643,0,-5.0,98.00000000053399
44.0,10.949079694734394,50.98067890525645,574.3715861653094,0,-5.0,98.0000000008846
45.0,10.949567786814868,50.980635716816806,580.1699062647805,0,-5.0,98.00000000050187
46.0,10.950055878441333,50.980592528377166,585.9050498498711,0,-5.0,98.00000000030724
47.0,10.950543969613761,50.98054933993753,591.5770344788837,0,-5.0,98.00000000112391
48.0,10.951032060332182,50.9805061514979,597.1858775165847,0,-5.0,98.00000000096554
49.0,10.951520150596565,50.98046296305826,602.7315961342597,0,-5.0,98.00000000123703
50.0,10.95200824040694,50.980419774618625,608.2142073097674,0,-5.0,98.00000000053342
51.0,10.952496329763306,50.980376586179005,613.633727827593,0,-5.0,97.99999999805192
52.0,10.952984418665636,50.98033339773939,618.9901742789012,0,-5.0,97.99999999726617
53.0,10.953472507113958,50.98029020929978,624.2835630615888,0,-5.0,97.99999999949904
54.0,10.953960595108299,50.980247020860155,629.5139103803356,0,-5.0,97.99999999951655
55.0,10.954448682648632,50.980203832420536,634.6812322466564,0,-5.0,97.99999999948528
56.0,10.954936769734928,50.980160643980916,639.7855444789509,0,-5.0,98.00000000107258
57.0,10.955424856367216,50.9801174555413,644.8268627025537,0,-5.0,98.00000000105183
58.0,10.955912942545496,50.98007426710168,649.8052023497837,0,-5.0,97.99999999930469
59.0,10.956401028269767,50.980031078662066,654.7205786599923,0,-5.0,97.99999999990177
60.0,10.956889113540058,50.979987890222446,659.573006679612,0,-5.0,98.00000000121702
61.0,10.957377198356312,50.97994470178283,664.3625012622035,0,-5.0,98.0000000011762
62.0,10.957865282718586,50.97990151334321,669.0890770685025,0,-5.0,98.00000000133895
63.0,10.958353366626852,50.97985832490359,673.7527485664662,0,-5.0,98.00000000200868
64.0,10.95884145008111,50.979815136463976,678.3535300313183,0,-5.0,98.0000000009777
65.0,10.959329533081359,50.979771948024364,682.8914355455948,0,-5.0,98.00000000165801
66.0,10.959817615627628,50.97972875958475,687.3664789991878,0,-5.0,98.00000000136322
67.0,10.96030569771986,50.979685571145154,691.7786740893894,0,-5.0,98.00000000024255
68.0,10.960793779358113,50.979642382705556,696.1280343209348,0,-5.0,97.99999999879532
69.0,10.961281860542385,50.97959919426595,700.4145730060452,0,-5.0,98.00000000085544
70.0,10.96176994127265,50.97955600582636,704.6383032644694,0,-5.0,97.99999999932606
71.0,10.962258021548934,50.97951281738676,708.7992380235253,0,-5.0,97.99999999912211
72.0,10.96274610137121,50.97946962894718,712.8973900181406,0,-5.0,97.99999999992951
73.0,10.963234180739505,50.97942644050758,716.9327717908931,0,-5.0,98.00000000092484
74.0,10.96372225965382,50.97938325206798,720.9053956920498,0,-5.0,98.00000000130541
75.0,10.964210338114128,50.97934006362839,724.8152738796064,0,-5.0,98.00000000047407
76.0,10.964698416120456,50.979296875188794,728.6624183193251,0,-5.0,98.00000000033515
77.0,10.965186493672803,50.97925368674921,732.4468407847726,0,-5.0,98.00000000024005
78.0,10.965674570771142,50.97921049830962,736.1685528573571,0,-5.0,97.99999999941167
79.0,10.966162647415501,50.979167309870036,739.827565926365,0,-5.0,98.00000000109753
80.0,10.96665072360588,50.979124121430445,743.4238911889962,0,-5.0,98.00000000100545
81.0,10.96713879934228,50.979080932990854,746.9575396504003,0,-5.0,98.00000000272757
82.0,10.967626874624699,50.97903774455127,750.4285221237106,0,-5.0,98.00000000097862
83.0,10.968114949453138,50.978994556111694,753.8368492300783,0,-5.0,98.00000000094099
84.0,10.968603023827598,50.97895136767212,757.182531398706,0,-5.0,97.99999999978422
85.0,10.969091097748077,50.97890817923253,760.4655788668807,0,-5.0,98.00000000041587
86.0,10.969579171214576,50.978864990792964,763.686001680006,0,-5.0,98.00000000045839
87.0,10.970067244227096,50.97882180235339,766.8438096916335,0,-5.0,97.99999999993759
88.0,10.970555316785635,50.978778613913825,769.9390125634943,0,-5.0,97.99999999946061
89.0,10.971043388890223,50.978735425474255,772.971619765529,0,-5.0,97.9999999996503
90.0,10.971531460540831,50.97869223703469,775.9416405759179,0,-5.0,97.99999999920965
91.0,10.972019531737459,50.97864904859513,778.8490840811099,0,-5.0,97.99999999992446
92.0,10.972507602480135,50.97860586015557,781.6939591758517,0,-5.0,97.99999999961278
93.0,10.972995672768832,50.97856267171601,784.4762745632149,0,-5.0,97.99999999864508
94.0,10.973483742603548,50.97851948327646,787.1960387546245,0,-5.0,97.99999999999591
95.0,10.973971811984285,50.9784762948369,789.8532600698849,0,-5.0,97.99999999962023
96.0,10.97445988091107,50.97843310639734,792.4479466372063,0,-5.0,98.00000000112578
97.0,10.974947949383903,50.978389917957784,794.9801063932307,0,-5.0,97.99999999976751
98.0,10.975436017402785,50.97834672951823,797.4497470830563,0,-5.0,98.00000000072782
99.0,10.975924084967687,50.97830354107868,799.8568762602625,0,-5.0,97.99999999984323
100.0,10.976412152078609,50.97826035263913,802.2015012869334,0,-5.0,97.99999999955833
101.0,10.97690021873558,50.978217164199584,804.4836293336808,0,-5.0,98.00000000059885
102.0,10.977388284938598,50.978173975760036,806.7032673796673,0,-5.0,97.99999999988711
103.0,10.977876350687666,50.97813078732049,808.8604222126278,0,-5.0,98.00000000035664
104.0,10.978364415982753,50.97808759888094,810.9551004288911,0,-5.0,98.00000000014433
105.0,10.978852480823917,50.978044410441406,812.9873084334008,0,-5.0,97.99999999904969
106.0,10.979340545211102,50.978001222001865,814.9570524397352,0,-5.0,98.00000000061834
107.0,10.979828609144334,50.97795803356233,816.8643384701272,0,-5.0,97.99999999886
108.0,10.980316672623644,50.9779148451228,818.709172355483,0,-5.0,97.99999999953866
109.0,10.980804735649002,50.97787165668326,820.4915597354005,0,-5.0,98.0000000006986
110.0,10.981292798220409,50.97782846824372,822.2115060581874,0,-5.0,97.99999999957629
111.0,10.981780860337835,50.97778527980418,823.8690165808779,0,-5.0,98.00000000120991
112.0,10.98226892200131,50.97774209136465,825.4640963692494,0,-5.0,98.0000000018685
113.0,10.982756983210862,50.977698902925106,826.9967502978388,0,-5.0,97.99999999975597
114.0,10.983245043966463,50.97765571448558,828.4669830499574,0,-5.0,98.00000000100664
115.0,10.983733104268111,50.97761252604605,829.8747991177058,0,-5.0,97.99999999936779
116.0,10.984221164115809,50.97756933760654,831.2202028019883,0,-5.0,97.9999999989102
117.0,10.984709223509583,50.97752614916702,832.5031982125261,0,-5.0,97.9999999991964
118.0,10.985197282449406,50.9774829607275,833.7237892678703,0,-5.0,97.99999999821927
119.0,10.985685340935305,50.97743977228799,834.8819796954145,0,-5.0,97.99999999965337
120.0,10.986173398967253,50.97739658384847,835.9777730314065,0,-5.0,98.00000000045713
121.0,10.986661456545278,50.97735339540895,837.011172620959,0,-5.0,97.99999999965291
122.0,10.987149513669351,50.97731020696943,837.9821816180606,0,-5.0,98.00000000104876
123.0,10.987637570339473,50.9772670185299,838.8908029855857,0,-5.0,98.00000000188129
124.0,10.988125626555671,50.977223830090395,839.7370394953035,0,-5.0,97.99999999938683
125.0,10.988613682317947,50.97718064165088,840.5208937278871,0,-5.0,98.0000000015371
126.0,10.9891017376263,50.97713745321137,841.2423680729216,0,-5.0,97.99999999963472
127.0,10.9895897924807,50.97709426477186,841.9014647289113,0,-5.0,98.0000000011471
128.0,10.990077846881178,50.97705107633235,842.4981857032867,0,-5.0,97.99999999928104
129.0,10.990565900827733,50.977007887892846,843.0325328124114,0,-5.0,97.99999999920351
130.0,10.991053954320364,50.97696469945335,843.5045076815871,0,-5.0,98.000000000863
131.0,10.991542007359072,50.976921511013856,843.914111745059,0,-5.0,97.999999996751
132.0,10.992030059943858,50.976878322574365,844.2613462460203,0,-5.0,97.99999999844675
133.0,10.992518112074691,50.97683513413487,844.5462122366162,0,-5.0,97.99999999946073
134.0,10.993006163751602,50.976791945695375,844.768710577947,0,-5.0,98.00000000121855
135.0,10.993494214974618,50.976748757255876,844.9288419400713,0,-5.0,98.00000000078671
136.0,10.993982265743682,50.97670556881638,845.0266068020072,0,-5.0,98.00000000008481
137.0,10.994470316058823,50.97666238037689,845.062005451735,0,-5.0,98.00000000075971
138.0,10.99495836592007,50.976619191937395,845.0350379861969,0,-5.0,97.99999999974938
139.0,10.995860663037178,50.976539344255336,845.0350379861969,0,0.0,97.99999999907425
140.0,10.996762958602773,50.97645949657329,845.0350379861969,0,0.0,97.99999999842709
141.0,10.997665252616855,50.976379648891246,845.0350379861969,0,0.0,97.99999999942867
142.0,10.998567545079425,50.976299801209215,845.0350379861969,0,0.0,98.00000000017769
143.0,10.99946983599051,50.9762199535272,845.0350379861969,0,0.0,97.99999999948005
144.0,11.000372125350111,50.976140105845175,845.0350379861969,0,0.0,98.00000000043116
145.0,11.001274413158228,50.97606025816318,845.0350379861969,0,0.0,97.99999999921454
146.0,11.002176699414889,50.97598041048119,845.0350379861969,0,0.0,97.99999999941008
147.0,11.003078984120094,50.97590056279921,845.0350379861969,0,0.0,97.9999999990107
148.0,11.003981267273844,50.97582071511724,845.0350379861969,0,0.0,97.99999999965871
149.0,11.004883548876137,50.975740867435285,845.0350379861969,0,0.0,97.99999999938342
150.0,11.005785828926975,50.97566101975333,845.0350379861969,0,0.0,97.99999999949858
151.0,11.006688107426385,50.975581172071394,845.0350379861969,0,0.0,97.9999999988101
152.0,11.007590384374367,50.97550132438946,845.0350379861969,0,0.0,98.00000000007094
153.0,11.008492659770923,50.975421476707545,845.0350379861969,0,0.0,97.99999999884955
154.0,11.009394933616079,50.97534162902563,845.0350379861969,0,0.0,97.99999999998391
155.0,11.010297205909836,50.97526178134373,845.0350379861969,0,0.0,97.99999999897847
156.0,11.011199476652195,50.97518193366184,845.0350379861969,0,0.0,97.99999999927934
157.0,11.012101745843154,50.975102085979955,845.0350379861969,0,0.0,97.99999999997073
158.0,11.013004013482714,50.975022238298074,845.0350379861969,0,0.0,98.00000000008106
159.0,11.013906279570875,50.97494239061621,845.0350379861969,0,0.0,97.99999999993895
160.0,11.014808544107694,50.97486254293435,845.0350379861969,0,0.0,98.00000000001472
161.0,11.015710807093143,50.97478269525251,845.0350379861969,0,0.0,97.99999999910307
162.0,11.01661306852722,50.974702847570676,845.0350379861969,0,0.0,98.00000000018252
163.0,11.017515328409957,50.97462299988885,845.0350379861969,0,0.0,97.99999999915838
164.0,11.01841758674135,50.97454315220704,845.0350379861969,0,0.0,97.99999999978286
165.0,11.019319843521401,50.97446330452524,845.0350379861969,0,0.0,97.99999999984033
166.0,11.02022209875014,50.97438345684345,845.0350379861969,0,0.0,97.99999999938075
167.0,11.021124352427535,50.974303609161666,845.0350379861969,0,0.0,97.99999999957618
168.0,11.022026604553616,50.97422376147989,845.0350379861969,0,0.0,97.99999999986983
169.0,11.022928855128413,50.97414391379812,845.0350379861969,0,0.0,98.00000000030343
170.0,11.023831104151895,50.97406406611636,845.0350379861969,0,0.0,98.00000000010596
171.0,11.024733351624093,50.97398421843462,845.0350379861969,0,0.0,97.99999999940536
172.0,11.025635597545005,50.97390437075289,845.0350379861969,0,0.0,97.9999999997105
173.0,11.026537841914632,50.973824523071166,845.0350379861969,0,0.0,97.99999999944856
174.0,11.027440084732973,50.97374467538944,845.0350379861969,0,0.0,98.00000000050682
175.0,11.028342326000086,50.973664827707736,845.0350379861969,0,0.0,98.00000000019634
176.0,11.029244565715913,50.97358498002604,845.0350379861969,0,0.0,97.99999999947744
177.0,11.030146803880513,50.97350513234435,845.0350379861969,0,0.0,97.99999999990615
178.0,11.031049040493855,50.97342528466268,845.0350379861969,0,0.0,97.99999999877406
179.0,11.031951275555969,50.97334543698102,845.0350379861969,0,0.0,97.99999999932686
180.0,11.032853509066854,50.97326558929936,845.0350379861969,0,0.0,97.99999999931254
181.0,11.03375574102651,50.97318574161772,845.0350379861969,0,0.0,97.99999999936028
182.0,11.034657971434939,50.973105893936086,845.0350379861969,0,0.0,97.99999999979855
183.0,11.035560200292167,50.97302604625447,845.0350379861969,0,0.0,97.99999999909062
184.0,11.036462427598167,50.972946198572856,845.0350379861969,0,0.0,97.99999999932447
185.0,11.037364653352995,50.972866350891245,845.0350379861969,0,0.0,97.99999999944771
186.0,11.038266877556623,50.972786503209655,845.0350379861969,0,0.0,97.99999999955497
187.0,11.039169100209108,50.972706655528064,845.0350379861969,0,0.0,97.99999999923716
188.0,11.040071321310393,50.9726268078465,845.0350379861969,0,0.0,97.99999999821034
189.0,11.040973540860506,50.97254696016494,845.0350379861969,0,0.0,97.99999999952524
190.0,11.041875758859476,50.972467112483386,845.0350379861969,0,0.0,97.99999999937961
191.0,11.042777975307274,50.972387264801846,845.0350379861969,0,0.0,97.99999999893129
192.0,11.04368019020393,50.972307417120305,845.0350379861969,0,0.0,98.0000000004963
193.0,11.04458240354947,50.97222756943878,845.0350379861969,0,0.0,97.99999999934255
194.0,11.045484615343867,50.97214772175726,845.0350379861969,0,0.0,97.99999999945885
195.0,11.046386825587149,50.97206787407576,845.0350379861969,0,0.0,97.99999999874365
196.0,11.047289034279288,50.971988026394264,845.0350379861969,0,0.0,97.99999999992764
197.0,11.04819124142034,50.97190817871277,845.0350379861969,0,0.0,98.00000000005741
198.0,11.049093447010307,50.971828331031304,845.0350379861969,0,0.0,97.99999999896318
199.0,11.049995651049159,50.97174848334983,845.0350379861969,0,0.0,98.00000000006878
200.0,11.050897853536924,50.97166863566837,845.0350379861969,0,0.0,98.00000000007003
201.0,11.051800054473603,50.971588787986924,845.0350379861969,0,0.0,97.99999999980486
202.0,11.052702253859223,50.97150894030548,845.0350379861969,0,0.0,98.00000000028086
203.0,11.053604451693786,50.971429092624064,845.0350379861969,0,0.0,97.99999999864491
204.0,11.054506647977263,50.971349244942644,845.0350379861969,0,0.0,97.999999999181
205.0,11.05540884270971,50.97126939726123,845.0350379861969,0,0.0,98.00000000024943
206.0,11.056311035891099,50.971189549579826,845.0350379861969,0,0.0,98.00000000004377
207.0,11.05721322752143,50.97110970189844,845.0350379861969,0,0.0,97.99999999957174
208.0,11.05811541760076,50.971029854217065,845.0350379861969,0,0.0,97.99999999963205
209.0,11.05901760612906,50.970950006535695,845.0350379861969,0,0.0,97.99999999936193
210.0,11.059919793106332,50.97087015885434,845.0350379861969,0,0.0,97.99999999915377
211.0,11.060821978532601,50.97079031117299,845.0350379861969,0,0.0,97.99999999940019
212.0,11.06172416240787,50.970710463491656,845.0350379861969,0,0.0,97.99999999938007
213.0,11.062626344732138,50.970630615810315,845.0350379861969,0,0.0,98.00000000068025
214.0,11.063528525505433,50.970550768129,845.0350379861969,0,0.0,97.9999999989609
215.0,11.064430704727727,50.97047092044769,845.0350379861969,0,0.0,98.00000000102807
216.0,11.065332882399048,50.97039107276639,845.0350379861969,0,0.0,97.99999999943276
217.0,11.066235058519396,50.9703112250851,845.0350379861969,0,0.0,97.99999999948608
218.0,11.067137233088772,50.97023137740381,845.0350379861969,0,0.0,98.0000000005312
219.0,11.068039406107232,50.97015152972254,845.0350379861969,0,0.0,97.9999999992499
220.0,11.06894157757472,50.97007168204128,845.0350379861969,0,0.0,98.00000000011846
221.0,11.06984374749129,50.96999183436003,845.0350379861969,0,0.0,97.9999999996042
222.0,11.070745915856918,50.96991198667879,845.0350379861969,0,0.0,97.99999999970316
223.0,11.07164808267163,50.96983213899755,845.0350379861969,3.0,0.0,97.9999999996275
224.0,11.072548448392922,50.969744606530796,845.0350379861969,6.0,0.0,98.77578427511196
225.0,11.073446847816854,50.9696494053263,845.0350379861969,8.73795534601088,0.0,99.55156855059727
226.0,11.074343116101971,50.96954655283778,845.0350379861969,8.73795534601088,0.0,100.32735282525357
227.0,11.07523708879961,50.9694360679216,845.0350379861969,8.73795534601088,0.0,101.1031371012923
228.0,11.076128601884278,50.96931797083337,845.0350379861969,8.73795534601088,0.0,101.87892137738385
229.0,11.077017491783863,50.96919228322425,845.0350379861969,8.73795534601088,0.0,102.65470565184796
230.0,11.077903595409794,50.969059028136904,845.0350379861969,8.73795534601088,0.0,103.4304899277563
231.0,11.078786750187021,50.968918230001336,845.0350379861969,8.73795534601088,0.0,104.20627420223127
232.0,11.079666794084005,50.96876991463038,845.0350379861969,8.73795534601088,0.0,104.98205847851546
233.0,11.080543565642614,50.96861410921501,845.0350379861969,8.73795534601088,0.0,105.75784275507829
234.0,11.081416904007824,50.96845084231932,845.0350379861969,8.73795534601088,0.0,106.5336270292313
235.0,11.082286648957393,50.968280143875276,845.0350379861969,8.73795534601088,0.0,107.30941130435741
236.0,11.083152640931246,50.96810204517723,845.0350379861969,8.73795534601088,0.0,108.08519557983482
237.0,11.08401472106101,50.96791657887622,845.0350379861969,8.73795534601088,0.0,108.86097985722085
238.0,11.084872731199255,50.967723778973976,845.0350379861969,8.73795534601088,0.0,109.6367641305585
239.0,11.085726513948543,50.96752368081663,845.0350379861969,8.73795534601088,0.0,110.41254840739839
240.0,11.08657591269045,50.96731632108829,845.0350379861969,8.73795534601088,0.0,111.18833268354427
241.0,11.087420771614433,50.967101737804335,845.0350379861969,8.73795534601088,0.0,111.96411695780836
242.0,11.088260935746462,50.96687997030435,845.0350379861969,8.73795534601088,0.0,112.73990123497782
243.0,11.089096250977633,50.966651059245,845.0350379861969,8.73795534601088,0.0,113.5156855098
244.0,11.089926564092451,50.96641504659259,845.0350379861969,8.73795534601088,0.0,114.29146978481754
245.0,11.09075172279708,50.96617197561525,845.0350379861969,8.73795534601088,0.0,115.067254060538
246.0,11.091571575747338,50.965921890875144,845.0350379861969,8.73795534601088,0.0,115.84303833564093
247.0,11.09238597257658,50.96566483822021,845.0350379861969,8.73795534601088,0.0,116.61882261188322
248.0,11.093194763923378,50.9654008647758,845.0350379861969,8.73795534601088,0.0,117.39460688707413
249.0,11.093997801458983,50.965130018936016,845.0350379861969,8.73795534601088,0.0,118.1703911619374
250.0,11.0947949379146,50.96485235035482,845.0350379861969,8.73795534601088,0.0,118.94617543793868
251.0,11.09558602710851,50.96456790993699,845.0350379861969,8.73795534601088,0.0,119.72195971260538
252.0,11.09637092397287,50.96427674982874,845.0350379861969,8.73795534601088,0.0,120.49774398979929
253.0,11.09714948458057,50.963978923408156,845.0350379861969,8.73795534601088,0.0,121.27352826527766
254.0,11.097921566171522,50.96367448527547,845.0350379861969,8.73795534601088,0.0,122.04931254059977
255.0,11.098687027179011,50.963363491242944,845.0350379861969,8.73795534601088,0.0,122.82509681597776
256.0,11.099445727255642,50.96304599832476,845.0350379861969,8.73795534601088,0.0,123.60088109017363
257.0,11.100197527299201,50.96272206472647,845.0350379861969,8.73795534601088,0.0,124.3766653659157
258.0,11.10094228947824,50.96239174983436,845.0350379861969,8.73795534601088,0.0,125.15244964138361
259.0,11.101679877257311,50.96205511420458,845.0350379861969,8.73795534601088,0.0,125.92823391627576
260.0,11.10241015542212,50.96171221955202,845.0350379861969,8.73795534601088,0.0,126.7040181933815
261.0,11.103132990104342,50.96136312873901,845.0350379861969,8.73795534601088,0.0,127.47980246820248
262.0,11.103848248806258,50.96100790576378,845.0350379861969,8.73795534601088,0.0,128.25558674404544
263.0,11.104555800425032,50.96064661574875,845.0350379861969,8.73795534601088,0.0,129.0313710172577
264.0,11.105255515276752,50.960279324928536,845.0350379861969,8.73795534601088,0.0,129.80715529494978
265.0,11.105947265120392,50.95990610063789,845.0350379861969,8.73795534601088,0.0,130.58293956888667
266.0,11.106630923181143,50.959527011299286,845.0350379861969,8.73795534601088,0.0,131.35872384534423
267.0,11.107306364173809,50.959142126410406,845.0350379861969,8.73795534601088,0.0,132.1345081222659
268.0,11.107973464325823,50.9587515165314,845.0350379861969,8.73795534601088,0.0,132.91029239661873
269.0,11.10863210139982,50.958355253271975,845.0350379861969,8.73795534601088,0.0,133.68607667170465
270.0,11.109282154716198,50.95795340927819,845.0350379861969,8.73795534601088,0.0,134.46186094677523
271.0,11.109923505175146,50.957546058219194,845.0350379861969,8.73795534601088,0.0,135.23764522295596
272.0,11.110556035278506,50.95713327477373,845.0350379861969,8.73795534601088,0.0,136.01342949909144
273.0,11.111179629151394,50.95671513461642,845.0350379861969,8.73795534601088,0.0,136.78921377462643
274.0,11.111794172563293,50.95629171440388,845.0350379861969,8.73795534601088,0.0,137.56499804967802
275.0,11.112399552949086,50.95586309176073,845.0350379861969,8.73795534601088,0.0,138.34078232495654
276.0,11.112995659429657,50.955429345265266,845.0350379861969,8.73795534601088,0.0,139.1165666000863
277.0,11.113582382832135,50.95499055443514,845.0350379861969,8.73795534601088,0.0,139.89235087657687
278.0,11.114159615710008,50.95454679971274,845.0350379861969,8.73795534601088,0.0,140.6681351507807
279.0,11.114727252362655,50.954098162450435,845.0350379861969,8.73795534601088,0.0,141.44391942590335
280.0,11.115285188854756,50.953644724895696,845.0350379861969,8.73795534601088,0.0,142.21970370206282
281.0,11.115833323035332,50.953186570175994,845.0350379861969,8.73795534601088,0.0,142.99548797816732
282.0,11.116371554556366,50.952723782283556,845.0350379861969,8.73795534601088,0.0,143.77127225456115
283.0,11.116899784891217,50.95225644606,845.0350379861969,8.73795534601088,0.0,144.54705652999655
284.0,11.117417917352611,50.95178464718072,845.0350379861969,8.73795534601088,0.0,145.32284080436
285.0,11.117925857110237,50.95130847213925,845.0350379861969,8.73795534601088,0.0,146.098625081058
286.0,11.118423511208192,50.95082800823137,845.0350379861969,8.73795534601088,0.0,146.8744093557579
287.0,11.118910788581843,50.950343343539096,845.0350379861969,8.73795534601088,0.0,147.65019363169688
288.0,11.11938760007456,50.94985456691455,845.0350379861969,8.73795534601088,0.0,148.42597790676268
289.0,11.119853858453894,50.94936176796368,845.0350379861969,8.73795534601088,0.0,149.2017621824627
290.0,11.120309478427572,50.94886503702977,845.0350379861969,8.73795534601088,0.0,149.97754645800273
291.0,11.120754376658965,50.948364465176994,845.0350379861969,8.73795534601088,0.0,150.75333073376703
292.0,11.121188471782403,50.94786014417358,845.0350379861969,8.73795534601088,0.0,151.5291150086273
293.0,11.121611684417843,50.947352166475135,845.0350379861969,8.73795534601088,0.0,152.3048992841559
294.0,11.122023937185475,50.94684062520755,845.0350379861969,8.73795534601088,0.0,153.0806835595447
295.0,11.122425154719735,50.94632561415006,845.0350379861969,8.73795534601088,0.0,153.85646783496327
296.0,11.122815263683037,50.94580722771794,845.0350379861969,8.73795534601088,0.0,154.63225211013514
297.0,11.123194192779096,50.94528556094527,845.0350379861969,8.73795534601088,0.0,155.40803638642024
298.0,11.123561872765976,50.9447607094675,845.0350379861969,8.73795534601088,0.0,156.18382066061554
299.0,11.123918236468512,50.94423276950388,845.0350379861969,8.73795534601088,0.0,156.95960493762072
300.0,11.124263218790702,50.943701837839875,845.0350379861969,8.73795534601088,0.0,157.7353892115143
301.0,11.124596756727328,50.94316801180939,845.0350379861969,8.73795534601088,0.0,158.51117348926732
302.0,11.124918789375613,50.942631389276904,845.0350379861969,8.73795534601088,0.0,159.28695776345887
303.0,11.125229257946017,50.9420920686196,845.0350379861969,8.73795534601088,0.0,160.062742039697
304.0,11.125528105773071,50.94155014870927,845.0350379861969,8.73795534601088,0.0,160.83852631578077
305.0,11.125815278325604,50.94100572889417,845.0350379861969,8.73795534601088,0.0,161.61431058972232
306.0,11.126090723216493,50.94045890898091,845.0350379861969,8.73795534601088,0.0,162.3900948649931
307.0,11.12635439021227,50.939909789216046,845.0350379861969,8.73795534601088,0.0,163.1658791400214
308.0,11.126606231242079,50.939358470267756,845.0350379861969,8.73795534601088,0.0,163.9416634178374
309.0,11.126846200406504,50.93880505320739,845.0350379861969,8.73795534601088,0.0,164.71744769201882
310.0,11.127074253985683,50.938249639490905,845.0350379861969,8.73795534601088,0.0,165.49323196778028
311.0,11.127290350447254,50.93769233094032,845.0350379861969,8.73795534601088,0.0,166.2690162426211
312.0,11.12749445045381,50.937133229724985,845.0350379861969,8.73795534601088,0.0,167.04480051799362
313.0,11.127686516869943,50.9365724383429,845.0350379861969,8.73795534601088,0.0,167.82058479405725
314.0,11.127866514768925,50.93601005960193,845.0350379861969,8.73795534601088,0.0,168.59636907012555
315.0,11.128034411438989,50.93544619660091,845.0350379861969,8.73795534601088,0.0,169.37215334452503
316.0,11.128190176389069,50.93488095271077,845.0350379861969,8.73795534601088,0.0,170.14793762104568
317.0,11.128333781354343,50.93431443155559,845.0350379861969,8.73795534601088,0.0,170.92372189686307
318.0,11.128465200301207,50.93374673699364,845.0350379861969,8.73795534601088,0.0,171.69950617171912
319.0,11.12858440943188,50.933177973098246,845.0350379861969,8.73795534601088,0.0,172.47529044703595
320.0,11.12869138718861,50.93260824413879,845.0350379861969,8.73795534601088,0.0,173.25107472285185
321.0,11.12878611425748,50.93203765456159,845.0350379861969,8.73795534601088,0.0,174.02685899886558
322.0,11.128868573571793,50.931466308970684,845.0350379861969,8.73795534601088,0.0,174.802643274272
323.0,11.128938750315001,50.93089431210876,845.0350379861969,8.73795534601088,0.0,175.57842755006254
324.0,11.128996631923314,50.93032176883787,845.0350379861969,8.73795534601088,0.0,176.3542118240474
325.0,11.129042208087725,50.929748784120235,845.0350379861969,8.73795534601088,0.0,177.129996101424
326.0,11.129075470755907,50.929175462999,845.0350379861969,8.73795534601088,0.0,177.90578037535488
327.0,11.129096414133329,50.92860191057899,845.0350379861969,8.73795534601088,0.0,178.68156465267634
328.0,11.129105034684358,50.92802823200744,845.0350379861969,8.73795534601088,0.0,179.45734892606947
329.0,11.129101331132546,50.92745453245468,845.0350379861969,8.73795534601088,0.0,180.23313320089258
330.0,11.129085304460773,50.92688091709492,845.0350379861969,8.73795534601088,0.0,181.00891747755276
331.0,11.129056957910962,50.92630749108691,845.0350379861969,8.73795534601088,0.0,181.78470175306506
332.0,11.129016296983252,50.9257343595547,845.0350379861969,8.73795534601088,0.0,182.56048602763607
333.0,11.128963329434782,50.92516162756838,845.0350379861969,8.73795534601088,0.0,183.33627030493943
334.0,11.128898065278236,50.92458940012475,845.0350379861969,8.73795534601088,0.0,184.11205457981094
335.0,11.128820516779712,50.92401778212813,845.0350379861969,8.73795534601088,0.0,184.8878388551712
336.0,11.128730698456366,50.92344687837114,845.0350379861969,8.73795534601088,0.0,185.66362313039866
337.0,11.128628627073567,50.92287679351543,845.0350379861969,8.73795534601088,0.0,186.4394074064376
338.0,11.128514321641688,50.922307632072545,845.0350379861969,8.73795534601088,0.0,187.21519168189036
339.0,11.128387803412437,50.92173949838476,845.0350379861969,8.73795534601088,0.0,187.99097595715756
340.0,11.128249095874793,50.92117249660593,845.0350379861969,8.73795534601088,0.0,188.7667602326685
341.0,11.128098224750545,50.92060673068238,845.0350379861969,8.73795534601088,0.0,189.54254450883204
342.0,11.127935217989432,50.92004230433392,845.0350379861969,8.73795534601088,0.0,190.31832878481765
343.0,11.127760105763855,50.91947932103476,845.0350379861969,8.73795534601088,0.0,191.09411306069694
344.0,11.127572920463223,50.91891788399458,845.0350379861969,8.73795534601088,0.0,191.8698973343092
345.0,11.127373696687755,50.91835809613959,845.0350379861969,8.73795534601088,0.0,192.64568160964785
346.0,11.127162471242059,50.917800060093654,845.0350379861969,8.73795534601088,0.0,193.42146588632707
347.0,11.126939283128308,50.91724387815952,845.0350379861969,8.73795534601088,0.0,194.19725015997105
348.0,11.12670417353877,50.916689652300036,845.0350379861969,8.73795534601088,0.0,194.97303443660897
349.0,11.126457185848238,50.916137484119425,845.0350379861969,8.73795534601088,0.0,195.7488187129003
350.0,11.126198365605944,50.91558747484471,845.0350379861969,8.73795534601088,0.0,196.52460298688777
351.0,11.125927760526963,50.91503972530715,845.0350379861969,8.73795534601088,0.0,197.30038726247557
352.0,11.125645420483409,50.914494335923756,845.0350379861969,8.73795534601088,0.0,198.07617153858695
353.0,11.125351397495137,50.91395140667883,845.0350379861969,8.73795534601088,0.0,198.85195581348785
354.0,11.125045745720058,50.91341103710569,845.0350379861969,8.73795534601088,0.0,199.62774008915792
355.0,11.124728521444098,50.912873326268425,845.0350379861969,8.73795534601088,0.0,200.40352436413013
356.0,11.124399783070714,50.91233837274372,845.0350379861969,8.73795534601088,0.0,201.17930864133118
357.0,11.124059591110154,50.91180627460277,845.0350379861969,8.73795534601088,0.0,201.95509291557923
358.0,11.123708008168137,50.91127712939331,845.0350379861969,8.73795534601088,0.0,202.7308771906469
359.0,11.123345098934266,50.910751034121766,845.0350379861969,8.73795534601088,0.0,203.50666146710188
360.0,11.122970930170112,50.9102280852354,845.0350379861969,8.73795534601088,0.0,204.2824457440249
361.0,11.122585570696884,50.90970837860472,845.0350379861969,8.73795534601088,0.0,205.05823001882132
362.0,11.122189091382609,50.9091920095058,845.0350379861969,8.73795534601088,0.0,205.83401429234993
363.0,11.121781565129027,50.908679072602915,845.0350379861969,8.73795534601088,0.0,206.6097985699079
364.0,11.121363066858265,50.90816966193114,845.0350379861969,8.73795534601088,0.0,207.38558284524515
365.0,11.120933673498854,50.90766387087908,845.0350379861969,8.73795534601088,0.0,208.1613671211104
366.0,11.120493463971627,50.907161792171806,845.0350379861969,8.73795534601088,0.0,208.93715139607616
367.0,11.120042519175115,50.906663517853815,845.0350379861969,8.73795534601088,0.0,209.71293567012626
368.0,11.119580921970567,50.9061691392722,845.0350379861969,8.73795534601088,0.0,210.4887199479825
369.0,11.119108757166856,50.905678747059866,845.0350379861969,8.73795534601088,0.0,211.26450422227822
370.0,11.118626111504682,50.905192431118905,845.0350379861969,8.73795534601088,0.0,212.04028849721766
371.0,11.11813307364065,50.904710280604185,845.0350379861969,8.73795534601088,0.0,212.81607277376898
372.0,11.11762973413093,50.9042323839069,845.0350379861969,8.73795534601088,0.0,213.59185704981988
373.0,11.117116185414687,50.90375882863846,845.0350379861969,8.73795534601088,0.0,214.36764132369922
374.0,11.116592521796889,50.90328970161436,845.0350379861969,8.73795534601088,0.0,215.1434255998834
375.0,11.116058839431105,50.90282508883833,845.0350379861969,8.73795534601088,0.0,215.91920987544123
376.0,11.115515236301803,50.902365075486514,845.0350379861969,8.73795534601088,0.0,216.69499415139617
377.0,11.114961812206275,50.90190974589189,845.0350379861969,8.73795534601088,0.0,217.47077842722004
378.0,11.114398668736357,50.90145918352878,845.0350379861969,8.73795534601088,0.0,218.24656270151038
379.0,11.113825909259702,50.90101347099757,845.0350379861969,8.73795534601088,0.0,219.02234697767972
380.0,11.113243638900855,50.90057269000955,845.0350379861969,8.73795534601088,0.0,219.79813125429928
381.0,11.112651964521916,50.90013692137197,845.0350379861969,8.73795534601088,0.0,220.57391552956616
382.0,11.11205099470294,50.89970624497314,845.0350379861969,8.73795534601088,0.0,221.3496998037429
383.0,11.111440839721979,50.89928073976792,845.0350379861969,8.73795534601088,0.0,222.12548407848968
384.0,11.110821611534817,50.89886048376311,845.0350379861969,8.73795534601088,0.0,222.9012683547989
385.0,11.110193423754538,50.89844555400324,845.0350379861969,8.73795534601088,0.0,223.67705262925537
386.0,11.109556391630548,50.898036026556404,845.0350379861969,8.73795534601088,0.0,224.45283690588238
387.0,11.108910632027573,50.89763197650032,845.0350379861969,8.73795534601088,0.0,225.2286211812103
388.0,11.108256263404172,50.89723347790857,845.0350379861969,8.73795534601088,0.0,226.00440545598272
389.0,11.107593405790993,50.896840603837035,845.0350379861969,8.73795534601088,0.0,226.78018973134945
390.0,11.106922180768805,50.89645342631047,845.0350379861969,8.73795534601088,0.0,227.55597400708947
391.0,11.106242711446214,50.896072016309326,845.0350379861969,8.73795534601088,0.0,228.33175828294745
392.0,11.105555122437153,50.89569644375673,845.0350379861969,8.73795534601088,0.0,229.1075425585713
393.0,11.104859539838003,50.89532677750565,845.0350379861969,8.73795534601088,0.0,229.88332683489222
394.0,11.104156091204544,50.89496308532631,845.0350379861969,8.73795534601088,0.0,230.65911110971862
395.0,11.103444905528505,50.89460543389372,845.0350379861969,8.73795534601088,0.0,231.43489538544662
396.0,11.10272611321409,50.89425388877548,845.0350379861969,8.73795534601088,0.0,232.21067966016358
397.0,11.101999846054014,50.89390851441975,845.0350379861969,8.73795534601088,0.0,232.98646393570885
398.0,11.101266237205436,50.89356937414347,845.0350379861969,8.73795534601088,0.0,233.7622482113985
399.0,11.100525421165514,50.89323653012068,845.0350379861969,8.73795534601088,0.0,234.5380324878916
400.0,11.09977753374693,50.892910043371174,845.0350379861969,8.73795534601088,0.0,235.31381676243157
401.0,11.099022712052914,50.89258997374931,845.0350379861969,8.73795534601088,0.0,236.0896010377404
402.0,11.098261094452226,50.89227637993303,845.0350379861969,8.73795534601088,0.0,236.86538531521677
403.0,11.097492820553924,50.891969319413086,845.0350379861969,8.73795534601088,0.0,237.64116958977218
404.0,11.096718031181723,50.891668848482524,845.0350379861969,8.73795534601088,0.0,238.41695386569114
405.0,11.095936868348304,50.89137502222635,845.0350379861969,8.73795534601088,0.0,239.1927381400572
406.0,11.095149475229334,50.891087894511436,845.0350379861969,8.73795534601088,0.0,239.96852241550584
407.0,11.094355996137324,50.89080751797664,845.0350379861969,8.73795534601088,0.0,240.74430669137365
408.0,11.093556576495246,50.89053394402316,845.0350379861969,8.73795534601088,0.0,241.52009096625966
409.0,11.092751362809992,50.890267222805136,845.0350379861969,8.73795534601088,0.0,242.2958752419944
410.0,11.091940502645514,50.89000740322039,845.0350379861969,6.0,0.0,243.07165951852213
411.0,11.091124144595966,50.889754532901485,845.0350379861969,3.0,0.0,243.847443793072
412.0,11.090309425874365,50.88949957306588,845.0350379861969,0,0.0,243.61472955882664
413.0,11.089494716071597,50.88924460755985,845.0350379861969,0,0.0,243.61409739186672
414.0,11.088680015187684,50.88898963638351,845.0350379861969,0,0.0,243.61346523387851
415.0,11.08786532322265,50.88873465953699,845.0350379861969,0,0.0,243.6128330868537
416.0,11.087050640176509,50.888479677020385,845.0350379861969,0,0.0,243.6122009474219
417.0,11.086235966049284,50.88822468883383,845.0350379861969,0,0.0,243.61156881871293
418.0,11.08542130084099,50.887969694977414,845.0350379861969,0,0.0,243.61093669740103
419.0,11.08460664455165,50.88771469545125,845.0350379861969,0,0.0,243.61030458492604
420.0,11.083791997181285,50.88745969025547,845.0350379861969,0,0.0,243.6096724835022
421.0,11.082977358729913,50.88720467939019,845.0350379861969,0,0.0,243.60904039166195
422.0,11.082162729197556,50.886949662855514,845.0350379861969,0,0.0,243.60840830784878
423.0,11.081348108584226,50.88669464065155,845.0350379861969,0,0.0,243.60777623303233
424.0,11.080533496889952,50.88643961277841,845.0350379861969,0,0.0,243.60714416720248
425.0,11.079718894114746,50.88618457923623,845.0350379861969,0,0.0,243.60651211227147
426.0,11.078904300258634,50.88592954002511,845.0350379861969,0,0.0,243.6058800665047
427.0,11.078089715321628,50.885674495145146,845.0350379861969,0,0.0,243.60524802675474
428.0,11.077275139303755,50.88541944459649,845.0350379861969,0,0.0,243.6046160006764
429.0,11.076460572205029,50.885164388379216,845.0350379861969,0,0.0,243.6039839797609
430.0,11.075646014025471,50.88490932649346,845.0350379861969,0,0.0,243.60335196976027
431.0,11.0748314647651,50.88465425893933,845.0350379861969,0,0.0,243.60271996881625
432.0,11.07401692442394,50.884399185716944,845.0350379861969,0,0.0,243.60208797788843
433.0,11.073202393002003,50.88414410682641,845.0350379861969,0,0.0,243.60145599558138
434.0,11.072387870499314,50.883889022267844,845.0350379861969,0,0.0,243.6008240223919
435.0,11.071573356915891,50.883633932041356,845.0350379861969,0,0.0,243.60019205773358
436.0,11.070758852251753,50.883378836147074,845.0350379861969,0,0.0,243.59956010455755
437.0,11.069944356506918,50.883123734585084,845.0350379861969,0,0.0,243.59892815711163
438.0,11.069129869681406,50.882868627355535,845.0350379861969,0,0.0,243.59829622224098
439.0,11.068315391775236,50.88261351445851,845.0350379861969,0,0.0,243.59766429471787
440.0,11.067500922788431,50.88235839589413,845.0350379861969,0,0.0,243.59703237559103
441.0,11.066686462721007,50.88210327166253,845.0350379861969,0,0.0,243.5964004688878
442.0,11.065872011572983,50.88184814176378,845.0350379861969,0,0.0,243.5957685675399
443.0,11.065057569344381,50.88159300619805,845.0350379861969,0,0.0,243.595136679664
444.0,11.064243136035218,50.88133786496542,845.0350379861969,0,0.0,243.59450479771192
445.0,11.063428711645512,50.88108271806599,845.0350379861969,0,0.0,243.59387292481296
446.0,11.062614296175287,50.88082756549991,845.0350379861969,0,0.0,243.59324106363368
447.0,11.061799889624558,50.880572407267266,845.0350379861969,0,0.0,243.59260920927554
448.0,11.06098549199334,50.88031724336817,845.0350379861969,0,0.0,243.5919773637745
449.0,11.060171103281666,50.88006207380277,845.0350379861969,0,0.0,243.59134553176085
450.0,11.059356723489545,50.879806898571125,845.0350379861969,0,0.0,243.59071370300302
451.0,11.058542352616996,50.87955171767339,845.0350379861969,0,0.0,243.59008188671072
452.0,11.057727990664041,50.87929653110968,845.0350379861969,0,0.0,243.58945008128296
453.0,11.0569136376307,50.879041338880086,845.0350379861969,0,0.0,243.58881828177698
454.0,11.05609929351699,50.87878614098473,845.0350379861969,0,0.0,243.5881864930288
455.0,11.05528495832293,50.87853093742374,845.0350379861969,0,0.0,243.58755471376654
456.0,11.054470632048544,50.87827572819721,845.0350379861969,0,0.0,243.5869229429411
457.0,11.053656314693844,50.87802051330527,845.0350379861969,0,0.0,243.58629118234833
458.0,11.052842006258851,50.87776529274801,845.0350379861969,0,0.0,243.58565942933848
459.0,11.052027706743589,50.877510066525566,845.0350379861969,0,0.0,243.58502768605342
460.0,11.051213416148073,50.87725483463804,845.0350379861969,0,0.0,243.58439595214685
461.0,11.050399134472324,50.87699959708556,845.0350379861969,0,0.0,243.58376422805367
462.0,11.049584861716356,50.876744353868204,845.0350379861969,0,0.0,243.58313251248507
463.0,11.048770597880194,50.876489104986135,845.0350379861969,0,0.0,243.58250080701382
464.0,11.047956342963856,50.876233850439434,845.0350379861969,0,0.0,243.58186910993288
465.0,11.04714209696736,50.87597859022822,845.0350379861969,0,0.0,243.58123742275353
466.0,11.046327859890722,50.87572332435261,845.0350379861969,0,0.0,243.58060574376873
467.0,11.045513631733968,50.87546805281272,845.0350379861969,0,0.0,243.5799740736532
468.0,11.04469941249711,50.87521277560866,845.0350379861969,0,0.0,243.57934241466558
469.0,11.04388520218017,50.87495749274055,845.0350379861969,0,0.0,243.57871076492037
470.0,11.043071000783172,50.87470220420849,845.0350379861969,0,0.0,243.57807912157276
471.0,11.042256808306126,50.874446910012594,845.0350379861969,0,0.0,243.5774474890232
472.0,11.041442624749056,50.874191610153005,845.0350379861969,0,0.0,243.57681586770656
473.0,11.04062845011198,50.87393630462979,845.0350379861969,0,0.0,243.5761842505557
474.0,11.03981428439492,50.87368099344311,845.0350379861969,0,0.0,243.57555264861966
475.0,11.039000127597888,50.87342567659304,845.0350379861969,0,0.0,243.5749210512672
476.0,11.038185979720907,50.87317035407971,845.0350379861969,0,0.0,243.5742894648622
477.0,11.037371840764,50.87291502590324,845.0350379861969,0,0.0,243.57365788846175
478.0,11.036557710727177,50.87265969206373,845.0350379861969,0,0.0,243.57302631990706
479.0,11.035743589610465,50.87240435256131,845.0350379861969,0,0.0,243.5723947626002
480.0,11.034929477413876,50.87214900739607,845.0350379861969,0,0.0,243.5717632112367
481.0,11.034115374137436,50.87189365656815,845.0350379861969,0,0.0,243.57113167197394
482.0,11.03330127978116,50.87163830007764,845.0350379861969,0,0.0,243.57050014046672
483.0,11.032487194345066,50.87138293792467,845.0350379861969,0,0.0,243.56986861819843
484.0,11.031673117829174,50.87112757010936,845.0350379861969,0,0.0,243.56923710700926
485.0,11.030859050233502,50.870872196631794,845.0350379861969,0,0.0,243.5686056018405
486.0,11.030044991558071,50.870616817492106,845.0350379861969,0,0.0,243.56797410831925
487.0,11.029230941802897,50.870361432690416,845.0350379861969,0,0.0,243.56734262331645
488.0,11.028416900968002,50.870106042226816,845.0350379861969,0,0.0,243.56671114627977
489.0,11.027602869053403,50.86985064610144,845.0350379861969,0,0.0,243.5660796808898
490.0,11.026788846059116,50.8695952443144,845.0350379861969,0,0.0,243.56544822292443
491.0,11.025974831985167,50.8693398368658,845.0350379861969,0,0.0,243.56481677487085
492.0,11.025160826831568,50.869084423755744,845.0350379861969,0,0.0,243.56418533599253
493.0,11.024346830598338,50.86882900498438,845.0350379861969,0,0.0,243.56355390667972
494.0,11.023532843285501,50.86857358055178,845.0350379861969,0,0.0,243.56292248456748
495.0,11.022718864893076,50.868318150458094,845.0350379861969,0,0.0,243.56229107429556
496.0,11.021904895421068,50.868062714703406,845.0350379861969,0,0.0,243.56165967190975
497.0,11.021090934869514,50.867807273287845,845.0350379861969,0,0.0,243.5610282786422
498.0,11.020276983238423,50.867551826211525,845.0350379861969,0,0.0,243.5603968952512
499.0,11.019463040527814,50.86729637347456,845.0350379861969,0,0.0,243.55976552028648
500.0,11.018649106737707,50.86704091507706,845.0350379861969,0,0.0,243.55913415564945
501.0,11.017835181868122,50.86678545101914,845.0350379861969,0,0.0,243.55850279915376
502.0,11.017021265919075,50.866529981300914,845.0350379861969,0,0.0,243.55787145235524
503.0,11.016207358890588,50.86627450592249,845.0350379861969,0,0.0,243.55724011413244
504.0,11.015393460782676,50.86601902488398,845.0350379861969,0,0.0,243.55660878560627
505.0,11.014579571595357,50.86576353818552,845.0350379861969,0,0.0,243.55597746607373
506.0,11.013765691328654,50.8655080458272,845.0350379861969,0,0.0,243.5553461565829
507.0,11.012951819982582,50.865252547809135,845.0350379861969,0,0.0,243.55471485541054
508.0,11.01213795755716,50.86499704413144,845.0350379861969,0,0.0,243.55408356342616
509.0,11.011324104052411,50.86474153479425,845.0350379861969,0,0.0,243.55345228205158
510.0,11.010510259468347,50.86448601979765,845.0350379861969,0,0.0,243.5528210087549
511.0,11.009696423804993,50.86423049914177,845.0350379861969,0,0.0,243.55218974370302
512.0,11.008882597062362,50.863974972826725,845.0350379861969,0,0.0,243.5515584898124
513.0,11.008068779240473,50.863719440852606,845.0350379861969,0,0.0,243.5509272437758
514.0,11.007254970339346,50.863463903219554,845.0350379861969,0,0.0,243.5502960072547
515.0,11.006441170359002,50.86320835992767,845.0350379861969,0,0.0,243.54966477996447
516.0,11.005627379299455,50.86295281097706,845.0350379861969,0,0.0,243.54903356212816
517.0,11.004813597160727,50.86269725636786,845.0350379861969,0,0.0,243.54840235286412
518.0,11.003999823942834,50.862441696100156,845.0350379861969,0,0.0,243.54777115244002
519.0,11.003186059645797,50.86218613017409,845.0350379861969,0,0.0,243.54713996371595
520.0,11.002372304269628,50.861930558589755,845.0350379861969,0,0.0,243.54650878287242
521.0,11.001558557814358,50.86167498134728,845.0350379861969,0,0.0,243.54587761033224
522.0,11.000744820279992,50.861419398446756,845.0350379861969,0,0.0,243.54524644685432
523.0,10.999931091666555,50.86116380988831,845.0350379861969,0,0.0,243.54461529341376
524.0,10.999117371974066,50.86090821567207,845.0350379861969,0,0.0,243.5439841503393
525.0,10.99830366120254,50.86065261579812,845.0350379861969,0,0.0,243.54335301444146
526.0,10.997489959351999,50.86039701026659,845.0350379861969,0,0.0,243.54272188820653
527.0,10.996676266422458,50.86014139907761,845.0350379861969,0,0.0,243.542090773129
528.0,10.995862582413936,50.85988578223126,845.0350379861969,0,0.0,243.5414596638666
529.0,10.995048907326456,50.85963015972768,845.0350379861969,0,0.0,243.5408285669596
530.0,10.99423524116003,50.859374531566964,845.0350379861969,0,0.0,243.54019747665936
531.0,10.993421583914682,50.85911889774924,845.0350379861969,0,0.0,243.5395663972028
532.0,10.992607935590422,50.85886325827462,845.0350379861969,0,0.0,243.53893532748057
533.0,10.99179429618728,50.8586076131432,845.0350379861969,0,0.0,243.53830426486013
534.0,10.99098066570526,50.858351962355115,845.0350379861969,0,0.0,243.53767321291593
535.0,10.99016704414439,50.85809630591047,845.0350379861969,0,0.0,243.53704216982385
536.0,10.989353431504691,50.85784064380938,845.0350379861969,0,0.0,243.536411135673
537.0,10.988539827786177,50.85758497605196,845.0350379861969,0,0.0,243.53578011116582
538.0,10.98772623298886,50.85732930263833,845.0350379861969,0,0.0,243.5351490970049
539.0,10.986912647112767,50.85707362356858,845.0350379861969,0,0.0,243.5345180898549
540.0,10.986099070157916,50.85681793884285,845.0350379861969,0,0.0,243.5338870934853
541.0,10.985285502124318,50.85656224846123,845.0350379861969,0,0.0,243.53325610490202
542.0,10.984471943011997,50.85630655242386,845.0350379861969,0,0.0,243.53262512739917
543.0,10.98365839282097,50.85605085073083,845.0350379861969,0,0.0,243.5319941572638
544.0,10.982844851551256,50.855795143382274,845.0350379861969,0,0.0,243.53136319805805
545.0,10.982031319202871,50.855539430378286,845.0350379861969,0,0.0,243.5307322471616
546.0,10.981217795775835,50.85528371171899,845.0350379861969,0,0.0,243.5301013045459
547.0,10.980404281270165,50.8550279874045,845.0350379861969,0,0.0,243.5294703725138
548.0,10.979590775685878,50.85477225743493,845.0350379861969,0,0.0,243.52883945027293
549.0,10.978777279022996,50.85451652181039,845.0350379861969,0,0.0,243.52820853554832
550.0,10.977963791281535,50.85426078053098,845.0350379861969,0,0.0,243.5275776290425
551.0,10.977150312461513,50.85400503359685,845.0350379861969,0,0.0,243.5269467358286
552.0,10.976336842562946,50.85374928100808,845.0350379861969,0,0.0,243.5263158487979
553.0,10.975523381585855,50.8534935227648,845.0350379861969,0,0.0,243.52568497098855
554.0,10.974709929530258,50.85323775886711,845.0350379861969,0,0.0,243.52505410196568
555.0,10.973896486396168,50.85298198931514,845.0350379861969,0,0.0,243.52442324485668
556.0,10.973083052183613,50.852726214109,845.0350379861969,0,0.0,243.52379239541244
557.0,10.972269626892603,50.85247043324879,845.0350379861969,0,0.0,243.52316155427474
558.0,10.971456210523154,50.852214646734645,845.0350379861969,0,0.0,243.5225307242418
559.0,10.970642803075293,50.85195885456666,845.0350379861969,0,0.0,243.52189990187287
560.0,10.969829404549033,50.85170305674495,845.0350379861969,0,0.0,243.52126908857338
561.0,10.969016014944392,50.85144725326964,845.0350379861969,0,0.0,243.52063828491154
562.0,10.968202634261386,50.85119144414084,845.0350379861969,0,0.0,243.52000749079778
563.0,10.967389262500035,50.85093562935866,845.0350379861969,0,0.0,243.5193767071742
564.0,10.96657589966036,50.8506798089232,845.0350379861969,0,0.0,243.5187459290283
565.0,10.965762545742376,50.85042398283461,845.0350379861969,0,0.0,243.5181151633176
566.0,10.964949200746098,50.85016815109297,845.0350379861969,0,0.0,243.51748440676414
567.0,10.964135864671551,50.84991231369841,845.0350379861969,0,0.0,243.51685365787273
568.0,10.963322537518742,50.84965647065104,845.0350379861969,0,0.0,243.51622291916996
569.0,10.9625092192877,50.84940062195096,845.0350379861969,0,0.0,243.5155921882789
570.0,10.961695909978438,50.84914476759831,845.0350379861969,0,0.0,243.5149614680104
571.0,10.960882609590973,50.848888907593185,845.0350379861969,0,0.0,243.51433075643473
572.0,10.960069318125326,50.8486330419357,845.0350379861969,0,0.0,243.51370005464423
573.0,10.959256035581511,50.84837717062597,845.0350379861969,0,0.0,243.51306936111166
574.0,10.958442761959551,50.848121293664114,845.0350379861969,0,0.0,243.51243867793227
575.0,10.957629497259457,50.84786541105025,845.0350379861969,0,0.0,243.51180800414755
576.0,10.956816241481253,50.847609522784474,845.0350379861969,0,0.0,243.51117733734867
577.0,10.956002994624955,50.84735362886691,845.0350379861969,0,0.0,243.510546682279
578.0,10.955189756690578,50.84709772929767,845.0350379861969,0,0.0,243.50991603503164
579.0,10.954376527678141,50.84684182407687,845.0350379861969,0,0.0,243.50928539776245
580.0,10.953563307587668,50.84658591320463,845.0350379861969,0,0.0,243.50865476913916
581.0,10.952750096419162,50.846329996681035,845.0350379861969,0,0.0,243.508024149085
582.0,10.95193689417266,50.846074074506234,845.0350379861969,0,0.0,243.50739354007186
583.0,10.951123700848164,50.84581814668032,845.0350379861969,0,0.0,243.50676293872974
584.0,10.950310516445699,50.84556221320341,845.0350379861969,0,0.0,243.50613234598782
585.0,10.94949734096528,50.84530627407562,845.0350379861969,0,0.0,243.5055017645386
586.0,10.948684174406928,50.84505032929706,845.0350379861969,0,0.0,243.50487119121
587.0,10.947871016770659,50.84479437886785,845.0350379861969,0,0.0,243.50424062751256
588.0,10.947057868056486,50.84453842278811,845.0350379861969,0,0.0,243.50361007325137
589.0,10.946244728264437,50.84428246105794,845.0350379861969,0,0.0,243.50297952736534
590.0,10.94543159739452,50.84402649367745,845.0350379861969,0,0.0,243.50234899080976
591.0,10.94461847544676,50.84377052064676,845.0350379861969,0,0.0,243.5017184630921
592.0,10.943805362421168,50.84351454196599,845.0350379861969,0,0.0,243.50108794647053
593.0,10.942992258317762,50.84325855763524,845.0350379861969,0,0.0,243.50045743692024
594.0,10.942179163136567,50.843002567654636,845.0350379861969,0,0.0,243.49982693762854
595.0,10.94136607687759,50.842746572024275,845.0350379861969,0,0.0,243.49919644611043
596.0,10.94055299954086,50.842490570744296,845.0350379861969,0,0.0,243.49856596603217
597.0,10.939739931126388,50.842234563814806,845.0350379861969,0,0.0,243.4979354952536
598.0,10.938926871634191,50.841978551235904,845.0350379861969,0,0.0,243.49730503135038
599.0,10.938113821064288,50.841722533007704,845.0350379861969,0,0.0,243.49667457774922
600.0,10.937300779416695,50.841466509130335,845.0350379861969,0,0.0,243.49604413438925
601.0,10.936487746691435,50.841210479603895,845.0350379861969,0,0.0,243.49541369763543
602.0,10.93567472288852,50.840954444428505,845.0350379861969,0,0.0,243.4947832728727
603.0,10.934861708007968,50.840698403604286,845.0350379861969,0,0.0,243.49415285731862
604.0,10.934048702049799,50.840442357131344,845.0350379861969,0,0.0,243.49352244916224
605.0,10.933235705014033,50.84018630500979,845.0350379861969,0,0.0,243.49289205040884
606.0,10.932422716900676,50.839930247239735,845.0350379861969,0,0.0,243.49226166122145
607.0,10.931609737709758,50.8396741838213,845.0350379861969,0,0.0,243.49163128228923
608.0,10.930796767441286,50.8394181147546,845.0350379861969,0,0.0,243.49100091165127
609.0,10.92998380609529,50.83916204003974,845.0350379861969,0,0.0,243.49037055004146
610.0,10.929170853671776,50.838905959676836,845.0350379861969,0,0.0,243.4897401980415
611.0,10.928357910170767,50.83864987366601,845.0350379861969,0,0.0,243.48910985515863
612.0,10.927544975592282,50.838393782007365,845.0350379861969,0,0.0,243.48847952209547
613.0,10.926732049936328,50.83813768470101,845.0350379861969,0,0.0,243.48784919608332
614.0,10.925919133202937,50.83788158174709,845.0350379861969,0,0.0,243.48721888298775
615.0,10.925106225392117,50.83762547314568,845.0350379861969,0,0.0,243.48658857510299
616.0,10.924293326503888,50.83736935889691,845.0350379861969,0,0.0,243.48595827902653
617.0,10.923480436538268,50.83711323900089,845.0350379861969,0,0.0,243.48532799110785
618.0,10.92266755549527,50.83685711345775,845.0350379861969,0,0.0,243.48469771318645
619.0,10.921854683374917,50.836600982267576,845.0350379861969,0,0.0,243.48406744319848
620.0,10.921041820177226,50.8363448454305,845.0350379861969,0,0.0,243.48343718434415
621.0,10.92022896590221,50.83608870294663,845.0350379861969,0,0.0,243.48280693283877
622.0,10.919416120549892,50.83583255481609,845.0350379861969,0,0.0,243.48217669162943
623.0,10.918603284120282,50.83557640103898,845.0350379861969,0,0.0,243.48154645880032
624.0,10.917790456613401,50.835320241615406,845.0350379861969,0,0.0,243.48091623593774
625.0,10.91697763802927,50.83506407654551,845.0350379861969,0,0.0,243.48028602269687
626.0,10.916164828367902,50.83480790582938,845.0350379861969,0,0.0,243.47965581704318
627.0,10.915352027629313,50.83455172946713,845.0350379861969,0,0.0,243.47902562081612
628.0,10.914539235813521,50.834295547458886,845.0350379861969,0,0.0,243.47839543545194
629.0,10.913726452920546,50.83403935980476,845.0350379861969,0,0.0,243.47776525800322
630.0,10.912913678950407,50.833783166504865,845.0350379861969,0,0.0,243.47713509093802
631.0,10.912100913903116,50.83352696755931,845.0350379861969,0,0.0,243.47650493207198
632.0,10.91128815777869,50.83327076296822,845.0350379861969,0,0.0,243.47587478348396
633.0,10.910475410577147,50.83301455273169,845.0350379861969,0,0.0,243.47524464239183
634.0,10.909662672298508,50.832758336849835,845.0350379861969,0,0.0,243.47461451026118
635.0,10.908849942942789,50.83250211532279,845.0350379861969,0,0.0,243.47398438997863
636.0,10.908037222510002,50.83224588815065,845.0350379861969,0,0.0,243.4733542768916
637.0,10.90722451100017,50.83198965533354,845.0350379861969,0,0.0,243.47272417376774
638.0,10.90641180841331,50.831733416871565,845.0350379861969,0,0.0,243.47209407969393
639.0,10.905599114749434,50.83147717276483,845.0350379861969,0,0.0,243.47146399475963
640.0,10.90478643000856,50.83122092301347,845.0350379861969,0,0.0,243.47083391906943
641.0,10.903973754190712,50.830964667617586,845.0350379861969,0,0.0,243.47020385253364
642.0,10.903161087295901,50.830708406577294,845.0350379861969,0,0.0,243.4695737954655
643.0,10.902348429324142,50.8304521398927,845.0350379861969,0,0.0,243.46894374692266
644.0,10.901535780275458,50.83019586756392,845.0350379861969,0,0.0,243.46831370659118
645.0,10.900723140149864,50.829939589591085,845.0350379861969,0,0.0,243.46768367937636
646.0,10.899910508947373,50.82968330597429,845.0350379861969,0,0.0,243.4670536578442
647.0,10.899097886668011,50.82942701671366,845.0350379861969,0,0.0,243.4664236467513
648.0,10.898285273311785,50.829170721809305,845.0350379861969,0,0.0,243.46579364534875
649.0,10.897472668878718,50.82891442126132,845.0350379861969,0,0.0,243.46516365154312
650.0,10.896660073368825,50.82865811506984,845.0350379861969,0,0.0,243.46453366919252
651.0,10.895847486782122,50.82840180323497,845.0350379861969,0,0.0,243.4639036929126
652.0,10.895034909118632,50.82814548575684,845.0350379861969,0,0.0,243.46327373013645
653.0,10.894222340378363,50.82788916263553,845.0350379861969,0,0.0,243.46264377199435
654.0,10.893409780561338,50.82763283387119,845.0350379861969,0,0.0,243.46201382674238
655.0,10.892597229667572,50.82737649946391,845.0350379861969,0,0.0,243.46138388887607
656.0,10.891784687697081,50.827120159413816,845.0350379861969,0,0.0,243.46075396057896
657.0,10.890972154649885,50.82686381372101,845.0350379861969,0,0.0,243.46012404086375
658.0,10.890159630525998,50.82660746238562,845.0350379861969,0,0.0,243.45949413179386
659.0,10.889347115325437,50.826351105407745,845.0350379861969,0,0.0,243.45886423111085
660.0,10.888534609048222,50.8260947427875,845.0350379861969,0,0.0,243.45823433853042
661.0,10.887722111694364,50.825838374525006,845.0350379861969,0,0.0,243.4576044578808
662.0,10.886909623263888,50.82558200062039,845.0350379861969,0,0.0,243.45697458500422
663.0,10.886097143756803,50.82532562107372,845.0350379861969,0,0.0,243.45634471931697
664.0,10.885284673173128,50.82506923588516,845.0350379861969,0,0.0,243.45571486599357
665.0,10.884472211512884,50.8248128450548,845.0350379861969,0,0.0,243.45508501987422
666.0,10.883659758776082,50.82455644858275,845.0350379861969,0,0.0,243.45445518406913
667.0,10.882847314962744,50.82430004646913,845.0350379861969,0,0.0,243.45382535798012
668.0,10.882034880072883,50.82404363871406,845.0350379861969,0,0.0,243.45319553964754
669.0,10.881222454106515,50.82378722531763,845.0350379861969,0,0.0,243.45256572998355
670.0,10.88041003706366,50.82353080627998,845.0350379861969,0,0.0,243.45193593159013
671.0,10.879597628944335,50.82327438160122,845.0350379861969,0,0.0,243.45130614247796
