Time,Longitude  ,Latitude,Altitude,Roll (deg),Pitch (deg),Yaw (deg)
0.0,10.9398,50.9815,315.7728,0,0.0,0.0
1.0,10.939799999999991,50.9815,316.4326488056778,0,5.0,270.0
2.0,10.939799999999991,50.9815,317.65234846398425,0,5.0,0.0
3.0,10.939799999999991,50.9815,319.4319027372045,0,5.0,0.0
4.0,10.939799999999991,50.9815,321.7713171029663,0,5.0,0.0
5.0,10.939799999999991,50.9815,324.6705987542525,0,5.0,0.0
6.0,10.939799999999991,50.9815,328.12975659941765,0,5.0,0.0
7.0,10.939799999999991,50.9815,332.148801262208,0,5.0,0.0
8.0,10.939799999999991,50.9815,336.7277450817859,0,5.0,0.0
9.0,10.939799999999991,50.9815,341.8666021127578,0,5.0,0.0
10.0,10.939799999999991,50.9815,347.5653881252063,0,5.0,0.0
11.0,10.939799999999991,50.9815,353.8241206047261,0,5.0,0.0
12.0,10.939799999999991,50.9815,360.6428187524636,0,5.0,0.0
13.0,10.939799999999991,50.9815,368.0215034851608,0,5.0,0.0
14.0,10.939799999999991,50.9815,375.9601974352028,0,5.0,0.0
15.0,10.939799999999991,50.9815,384.4589249506695,0,5.0,0.0
16.0,10.939799999999991,50.9815,393.5177120953906,0,5.0,0.0
17.0,10.939799999999991,50.9815,403.1365866490055,0,5.0,0.0
18.0,10.939851484446422,50.981495444619995,412.7092935495821,0,5.0,98.00000000508157
19.0,10.939912453904782,50.98149004999639,422.3358621461037,0,5.0,97.99999998767555
20.0,10.939982908371633,50.981483816128396,432.01632195175694,0,5.0,97.99999998296403
21.0,10.940062847843024,50.981476743015236,441.7507026440203,0,5.0,97.999999996383
22.0,10.940152272314492,50.981468830656155,451.5390340647527,0,5.0,97.99999999050027
23.0,10.940251181781008,50.98146007905036,461.38134622028264,0,5.0,98.00000000382715
24.0,10.940359576237057,50.98145048819709,471.27766928149805,0,5.0,98.00000000253453
25.0,10.940477455676614,50.98144005809559,481.2280335839362,0,5.0,97.99999999764822
26.0,10.940604820093142,50.981428788745085,491.23246962787454,0,5.0,97.99999999612055
27.0,10.940741669479564,50.9814166801448,501.2910080784216,0,5.0,98.00000000527075
28.0,10.940888003828348,50.98140373229396,511.40367976560896,0,5.0,97.99999999812957
29.0,10.941043823131366,50.9813899451918,521.570515684483,0,5.0,98.00000000218802
30.0,10.941209127380063,50.98137531883756,531.7915469951978,0,5.0,98.00000000092831
31.0,10.941383916565314,50.981359853230444,542.066805023108,0,5.0,98.0000000023557
32.0,10.941568190677486,50.98134354836973,552.3963212588628,0,5.0,97.99999998914996
33.0,10.94176194970646,50.9813264042546,562.7801273584994,0,5.0,97.99999999888917
34.0,10.94196519364155,50.9813084208843,573.218255143538,0,5.0,97.99999999958646
35.0,10.942177922471615,50.98128959825806,583.7107366010772,0,5.0,97.99999999964109
36.0,10.942400136184915,50.98126993637511,594.2576038838886,0,5.0,97.99999999699662
37.0,10.942631834769315,50.98124943523468,604.8588893105137,0,5.0,97.99999999641784
38.0,10.942873018212083,50.981228094836005,615.5146253653604,0,5.0,97.99999999830482
39.0,10.943123686499973,50.98120591517831,626.2248446987994,0,5.0,97.9999999986087
40.0,10.943383839619258,50.981182896260805,636.9895801272623,0,5.0,98.00000000325622
41.0,10.94365347755567,50.981159038082765,647.8088646333396,0,5.0,97.99999999667756
42.0,10.943932600294431,50.98113434064337,658.6827313658789,0,5.0,98.00000000347745
43.0,10.944221207820306,50.98110880394191,669.6112136400843,0,5.0,97.99999999688714
44.0,10.944519300117463,50.98108242797755,680.5943449376157,0,5.0,98.00000000052273
45.0,10.94482687716959,50.98105521274956,691.6321589066887,0,5.0,97.99999999964416
46.0,10.945143938959859,50.98102715825715,702.7246893621755,0,5.0,98.00000000444805
47.0,10.945470485470906,50.980998264499554,713.8719702857053,0,5.0,98.00000000298496
48.0,10.946395967780518,50.98091637270038,721.1692800802482,0,-5.0,98.00000000012903
49.0,10.947381312233517,50.98082918355179,724.6166410476621,0,-5.0,98.00000000026932
50.0,10.948426518485945,50.9807366970232,724.214063691765,0,-5.0,97.99999999918037
51.0,10.949242212630224,50.980664519879554,724.214063691765,0,0.0,97.99999999956242
52.0,10.950141739217656,50.98058492431785,724.214063691765,0,0.0,98.00000000009999
53.0,10.951041264263011,50.980505328756166,724.214063691765,0,0.0,97.99999999998141
54.0,10.951940787766262,50.980425733194494,724.214063691765,0,0.0,97.99999999958652
55.0,10.952840309727435,50.980346137632836,724.214063691765,0,0.0,97.99999999990683
56.0,10.95373983014656,50.98026654207119,724.214063691765,0,0.0,97.99999999880322
57.0,10.954639349023608,50.980186946509555,724.214063691765,0,0.0,97.99999999927473
58.0,10.955538866358609,50.980107350947925,724.214063691765,0,0.0,97.9999999992271
59.0,10.956438382151589,50.9800277553863,724.214063691765,0,0.0,97.99999999993645
60.0,10.957337896402493,50.97994815982468,724.214063691765,0,0.0,98.00000000123799
61.0,10.958237409111405,50.979868564263086,724.214063691765,0,0.0,97.99999999833437
62.0,10.959136920278269,50.97978896870149,724.214063691765,0,0.0,97.9999999998235
63.0,10.960036429903141,50.979709373139904,724.214063691765,0,0.0,97.99999999958158
64.0,10.960935937985965,50.97962977757834,724.214063691765,0,0.0,97.99999999928673
65.0,10.961835444526798,50.979550182016766,724.214063691765,0,0.0,98.0000000001287
66.0,10.96273494952564,50.97947058645522,724.214063691765,0,0.0,97.9999999994406
67.0,10.96363445298249,50.97939099089367,724.214063691765,0,0.0,97.99999999977479
68.0,10.964533954897377,50.97931139533214,724.214063691765,0,0.0,97.9999999992882
69.0,10.965433455270272,50.97923179977061,724.214063691765,0,0.0,98.00000000037682
70.0,10.966332954101205,50.9791522042091,724.214063691765,0,0.0,97.99999999906692
71.0,10.967232451390174,50.97907260864759,724.214063691765,0,0.0,97.99999999971197
72.0,10.96813194713718,50.97899301308611,724.214063691765,0,0.0,97.99999999851138
73.0,10.969031441342224,50.978913417524616,724.214063691765,0,0.0,98.00000000024033
74.0,10.969930934005333,50.97883382196314,724.214063691765,0,0.0,97.99999999985846
75.0,10.970830425126536,50.97875422640167,724.214063691765,0,0.0,98.00000000057702
76.0,10.971729914705804,50.97867463084021,724.214063691765,0,0.0,98.00000000001683
77.0,10.972629402743138,50.97859503527877,724.214063691765,0,0.0,97.99999999951831
78.0,10.973528889238565,50.97851543971733,724.214063691765,0,0.0,97.99999999977672
79.0,10.974428374192087,50.97843584415591,724.214063691765,0,0.0,97.99999999820358
80.0,10.97532785760373,50.97835624859451,724.214063691765,0,0.0,97.99999999897909
81.0,10.976227339473468,50.9782766530331,724.214063691765,0,0.0,97.99999999973801
82.0,10.977126819801327,50.97819705747171,724.214063691765,0,0.0,97.99999999841407
83.0,10.97802629858731,50.97811746191032,724.214063691765,0,0.0,97.99999999999164
84.0,10.978925775831414,50.97803786634895,724.214063691765,0,0.0,97.99999999912046
85.0,10.979825251533669,50.97795827078758,724.214063691765,0,0.0,97.99999999993895
86.0,10.980724725694046,50.97787867522622,724.214063691765,0,0.0,97.99999999949262
87.0,10.981624198312574,50.977799079664884,724.214063691765,0,0.0,97.99999999887063
88.0,10.982523669389252,50.977719484103545,724.214063691765,0,0.0,97.99999999892748
89.0,10.98342313892411,50.97763988854222,724.214063691765,0,0.0,97.99999999943964
90.0,10.984322606917118,50.97756029298091,724.214063691765,0,0.0,97.99999999930418
91.0,10.985222073368305,50.9774806974196,724.214063691765,0,0.0,98.00000000025523
92.0,10.9861215382777,50.9774011018583,724.214063691765,0,0.0,97.99999999943884
93.0,10.987021001645303,50.977321506297,724.214063691765,0,0.0,97.99999999993236
94.0,10.987920463471085,50.97724191073573,724.214063691765,0,0.0,97.99999999949057
95.0,10.988819923755074,50.97716231517446,724.214063691765,0,0.0,97.99999999979184
96.0,10.989719382497299,50.9770827196132,724.214063691765,0,0.0,97.9999999989708
97.0,10.990618839697731,50.977003124051954,724.214063691765,0,0.0,97.99999999972482
98.0,10.991518295356371,50.976923528490715,724.214063691765,0,0.0,97.99999999959385
99.0,10.992417749473248,50.97684393292948,724.214063691765,0,0.0,97.9999999998904
100.0,10.993317202048388,50.976764337368266,724.214063691765,0,0.0,97.99999999876297
101.0,10.994216653081764,50.976684741807055,724.214063691765,0,0.0,98.00000000044497
102.0,10.995116102573405,50.97660514624586,724.214063691765,0,0.0,97.99999999879583
103.0,10.99601555052331,50.97652555068468,724.214063691765,0,0.0,97.99999999941713
104.0,10.99691499693148,50.976445955123495,724.214063691765,0,0.0,97.99999999915343
105.0,10.997814441797942,50.97636635956233,724.214063691765,0,0.0,97.99999999934516
106.0,10.998713885122669,50.976286764001166,724.214063691765,0,0.0,98.00000000013739
107.0,10.999613326905717,50.97620716844003,724.214063691765,0,0.0,97.99999999829379
108.0,11.000512767147029,50.97612757287888,724.214063691765,0,0.0,97.99999999953889
109.0,11.001412205846663,50.97604797731775,724.214063691765,0,0.0,98.00000000035692
110.0,11.002311643004589,50.97596838175662,724.214063691765,0,0.0,97.99999999956674
111.0,11.003211078620836,50.975888786195505,724.214063691765,0,0.0,98.00000000019247
112.0,11.004110512695405,50.97580919063441,724.214063691765,0,0.0,97.99999999960374
113.0,11.005009945228323,50.97572959507331,724.214063691765,0,0.0,97.999999999772
114.0,11.005909376219591,50.97564999951223,724.214063691765,0,0.0,97.99999999906925
115.0,11.00680880566918,50.97557040395116,724.214063691765,0,0.0,97.99999999959806
116.0,11.007708233577148,50.9754908083901,724.214063691765,0,0.0,97.9999999994123
117.0,11.008607659943465,50.97541121282906,724.214063691765,0,0.0,97.99999999855095
118.0,11.00950708476816,50.97533161726802,724.214063691765,0,0.0,97.99999999910557
119.0,11.010406508051233,50.975252021706986,724.214063691765,0,0.0,97.99999999940633
120.0,11.011305929792684,50.97517242614597,724.214063691765,0,0.0,97.99999999943918
121.0,11.012205349992541,50.97509283058495,724.214063691765,0,0.0,97.99999999991343
122.0,11.013104768650777,50.97501323502394,724.214063691765,0,0.0,98.00000000039904
123.0,11.01400418576742,50.97493363946294,724.214063691765,0,0.0,97.99999999974841
124.0,11.014903601342468,50.97485404390195,724.214063691765,0,0.0,97.99999999977649
125.0,11.015803015375951,50.97477444834098,724.214063691765,0,0.0,97.99999999931333
126.0,11.016702427867841,50.97469485278002,724.214063691765,0,0.0,97.99999999946465
127.0,11.017601838818138,50.97461525721906,724.214063691765,0,0.0,98.00000000000716
128.0,11.018501248226897,50.974535661658116,724.214063691765,0,0.0,97.99999999947761
129.0,11.019400656094092,50.974456066097176,724.214063691765,0,0.0,98.00000000019361
130.0,11.02030006241975,50.97437647053625,724.214063691765,0,0.0,97.99999999948574
131.0,11.021199467203871,50.97429687497534,724.214063691765,0,0.0,97.99999999944265
132.0,11.022098870446456,50.974217279414425,724.214063691765,0,0.0,97.9999999997907
133.0,11.022998272147504,50.974137683853534,724.214063691765,0,0.0,97.99999999862268
134.0,11.023897672307044,50.974058088292644,724.214063691765,0,0.0,98.00000000042041
135.0,11.024797070925075,50.973978492731774,724.214063691765,0,0.0,97.99999999880873
136.0,11.025696468001598,50.97389889717091,724.214063691765,0,0.0,97.9999999994676
137.0,11.026595863536613,50.97381930161005,724.214063691765,0,0.0,97.99999999985852
138.0,11.027495257530148,50.97373970604921,724.214063691765,0,0.0,97.99999999914104
139.0,11.028394649982175,50.97366011048837,724.214063691765,0,0.0,97.99999999966923
140.0,11.02929404089275,50.97358051492755,724.214063691765,0,0.0,97.99999999944083
141.0,11.030193430261846,50.97350091936673,724.214063691765,0,0.0,97.99999999952541
142.0,11.03109281808949,50.97342132380591,724.214063691765,0,0.0,98.00000000101198
143.0,11.031992204375655,50.97334172824512,724.214063691765,0,0.0,97.99999999931254
144.0,11.032891589120396,50.97326213268433,724.214063691765,0,0.0,97.99999999940889
145.0,11.033790972323686,50.97318253712356,724.214063691765,0,0.0,97.99999999854202
146.0,11.034690353985553,50.9731029415628,724.214063691765,0,0.0,97.99999999970828
147.0,11.035589734105969,50.97302334600204,724.214063691765,0,0.0,97.99999999989734
148.0,11.03648911268499,50.97294375044129,724.214063691765,0,0.0,97.99999999967332
149.0,11.037388489722588,50.972864154880554,724.214063691765,0,0.0,97.99999999913115
150.0,11.038287865218791,50.97278455931982,724.214063691765,0,0.0,98.00000000027865
151.0,11.039187239173572,50.9727049637591,724.214063691765,0,0.0,97.99999999984578
152.0,11.040086611586958,50.972625368198386,724.214063691765,0,0.0,97.99999999986824
153.0,11.040985982458977,50.972545772637694,724.214063691765,0,0.0,97.99999999937154
154.0,11.041885351789603,50.972466177077,724.214063691765,0,0.0,97.99999999951729
155.0,11.042784719578862,50.97238658151631,724.214063691765,0,0.0,98.00000000042002
156.0,11.043684085826754,50.97230698595564,724.214063691765,0,0.0,98.00000000010817
157.0,11.044583450533281,50.97222739039498,724.214063691765,0,0.0,98.00000000018747
158.0,11.04548281369847,50.97214779483433,724.214063691765,0,0.0,97.9999999984854
159.0,11.046382175322321,50.97206819927369,724.214063691765,0,0.0,97.99999999969884
160.0,11.047281535404807,50.971988603713065,724.214063691765,0,0.0,97.99999999964751
161.0,11.048180893945982,50.97190900815244,724.214063691765,0,0.0,98.00000000041729
162.0,11.049080250945849,50.971829412591816,724.214063691765,0,0.0,98.00000000028814
163.0,11.049979606404406,50.97174981703122,724.214063691765,0,0.0,97.99999999928792
164.0,11.050878960321626,50.97167022147062,724.214063691765,0,0.0,97.99999999986284
165.0,11.051778312697564,50.97159062591004,724.214063691765,0,0.0,97.99999999969515
166.0,11.052677663532194,50.97151103034946,724.214063691765,0,0.0,97.99999999948295
167.0,11.053577012825542,50.9714314347889,724.214063691765,0,0.0,97.9999999997541
168.0,11.05447636057761,50.97135183922835,724.214063691765,0,0.0,97.99999999944174
169.0,11.055375706788396,50.971272243667805,724.214063691765,0,0.0,97.9999999995066
170.0,11.05627505145793,50.97119264810727,724.214063691765,0,0.0,98.00000000001279
171.0,11.057174394586184,50.97111305254675,724.214063691765,0,0.0,97.99999999956981
172.0,11.058073736173185,50.97103345698623,724.214063691765,0,0.0,98.0000000001993
173.0,11.058973076218962,50.97095386142573,724.214063691765,0,0.0,97.99999999907527
174.0,11.059872414723486,50.97087426586523,724.214063691765,0,0.0,98.00000000012955
175.0,11.060771751686787,50.97079467030474,724.214063691765,0,0.0,98.00000000007543
176.0,11.061671087108863,50.97071507474426,724.214063691765,0,0.0,97.99999999943788
177.0,11.062570420989715,50.9706354791838,724.214063691765,0,0.0,98.00000000012415
178.0,11.063469753329372,50.97055588362335,724.214063691765,0,0.0,97.99999999937245
179.0,11.064369084127804,50.970476288062905,724.214063691765,0,0.0,97.99999999923534
180.0,11.065268413385041,50.97039669250246,724.214063691765,0,0.0,98.00000000048618
181.0,11.066167741101111,50.97031709694204,724.214063691765,0,0.0,97.9999999993525
182.0,11.067067067275985,50.970237501381625,724.214063691765,0,0.0,97.99999999914888
183.0,11.067966391909664,50.970157905821225,724.214063691765,0,0.0,97.99999999963802
184.0,11.068865715002204,50.97007831026083,724.214063691765,0,0.0,97.99999999939837
185.0,11.069765036553576,50.96999871470044,724.214063691765,0,0.0,97.99999999974546
186.0,11.070664356563782,50.96991911914006,724.214063691765,0,0.0,98.00000000018201
187.0,11.071563675032849,50.969839523579694,724.214063691765,3.0,0.0,97.99999999948227
188.0,11.07246119215759,50.969752243261404,724.214063691765,6.0,0.0,98.77824118179171
189.0,11.073356742212923,50.96965729428828,724.214063691765,8.737952010431007,0.0,99.55648236357496
190.0,11.07425015983867,50.969554694178186,724.214063691765,8.737952010431007,0.0,100.33472354670937
191.0,11.075141280070142,50.969444461860576,724.214063691765,8.737952010431007,0.0,101.11296472905582
192.0,11.07602993836889,50.969326617672955,724.214063691765,8.737952010431007,0.0,101.89120591079376
193.0,11.076915970653062,50.96920118335715,724.214063691765,8.737952010431007,0.0,102.6694470927169
194.0,11.07779921332795,50.96906818205529,724.214063691765,8.737952010431007,0.0,103.44768827527662
195.0,11.078679503316266,50.96892763830552,724.214063691765,8.737952010431007,0.0,104.2259294574564
196.0,11.079556678088323,50.96877957803753,724.214063691765,8.737952010431007,0.0,105.00417064022639
197.0,11.080430575692304,50.968624028567696,724.214063691765,8.737952010431007,0.0,105.78241182091972
198.0,11.081301034784161,50.96846101859408,724.214063691765,8.737952010431007,0.0,106.56065300510909
199.0,11.082167894657545,50.96829057819114,724.214063691765,8.737952010431007,0.0,107.33889418751687
200.0,11.083030995273731,50.96811273880418,724.214063691765,8.737952010431007,0.0,108.11713536765183
201.0,11.083890177291039,50.96792753324352,724.214063691765,8.737952010431007,0.0,108.89537655062338
202.0,11.084745282094588,50.96773499567845,724.214063691765,8.737952010431007,0.0,109.67361773382174
203.0,11.085596151825598,50.96753516163097,724.214063691765,8.737952010431007,0.0,110.4518589155009
204.0,11.086442629410612,50.96732806796917,724.214063691765,8.737952010431007,0.0,111.2301000981929
205.0,11.087284558590653,50.96711375290049,724.214063691765,8.737952010431007,0.0,112.00834128010683
206.0,11.088121783950157,50.966892255964616,724.214063691765,8.737952010431007,0.0,112.78658246248659
207.0,11.088954150945767,50.96666361802621,724.214063691765,8.737952010431007,0.0,113.56482364551619
208.0,11.089781505935008,50.966427881267386,724.214063691765,8.737952010431007,0.0,114.34306482686821
209.0,11.090603696204596,50.96618508917991,724.214063691765,8.737952010431007,0.0,115.12130601011432
210.0,11.091420569998945,50.965935286557155,724.214063691765,8.737952010431007,0.0,115.8995471918713
211.0,11.092231976548078,50.96567851948589,724.214063691765,8.737952010431007,0.0,116.67778837303365
212.0,11.093037766095648,50.965414835337704,724.214063691765,8.737952010431007,0.0,117.45602955700315
213.0,11.093837789926624,50.96514428276034,724.214063691765,8.737952010431007,0.0,118.23427073919481
214.0,11.094631900394859,50.96486691166867,724.214063691765,8.737952010431007,0.0,119.01251192148112
215.0,11.0954199509504,50.964582773235534,724.214063691765,8.737952010431007,0.0,119.79075310179462
216.0,11.096201796166582,50.9642919198822,724.214063691765,8.737952010431007,0.0,120.56899428722079
217.0,11.096977291767047,50.963994405268814,724.214063691765,8.737952010431007,0.0,121.34723546753179
218.0,11.097746294652268,50.96369028428444,724.214063691765,8.737952010431007,0.0,122.12547665012323
219.0,11.098508662926207,50.96337961303691,724.214063691765,8.737952010431007,0.0,122.90371783272792
220.0,11.099264255922463,50.96306244884253,724.214063691765,8.737952010431007,0.0,123.68195901480203
221.0,11.100012934230278,50.96273885021546,724.214063691765,8.737952010431007,0.0,124.46020019716696
222.0,11.1007545597204,50.962408876856934,724.214063691765,8.737952010431007,0.0,125.23844137995877
223.0,11.101488995570548,50.96207258964425,724.214063691765,8.737952010431007,0.0,126.01668256204425
224.0,11.102216106290797,50.96173005061953,724.214063691765,8.737952010431007,0.0,126.79492374387377
225.0,11.102935757748497,50.961381322978276,724.214063691765,8.737952010431007,0.0,127.57316492713153
226.0,11.103647817193178,50.96102647105772,724.214063691765,8.737952010431007,0.0,128.35140611021114
227.0,11.10435215328107,50.96066556032495,724.214063691765,8.737952010431007,0.0,129.12964729124445
228.0,11.105048636099298,50.9602986573648,724.214063691765,8.737952010431007,0.0,129.90788847343123
229.0,11.105737137189948,50.95992582986762,724.214063691765,8.737952010431007,0.0,130.68612965589614
230.0,11.106417529573775,50.95954714661676,724.214063691765,8.737952010431007,0.0,131.46437083898638
231.0,11.10708968777368,50.95916267747586,724.214063691765,8.737952010431007,0.0,132.24261202021916
232.0,11.107753487837812,50.95877249337601,724.214063691765,8.737952010431007,0.0,133.02085320310096
233.0,11.108408807362508,50.958376666302605,724.214063691765,8.737952010431007,0.0,133.79909438602783
234.0,11.109055525514918,50.95797526928212,724.214063691765,8.737952010431007,0.0,134.5773355668067
235.0,11.1096935230552,50.95756837636861,724.214063691765,8.737952010431007,0.0,135.35557674864913
236.0,11.110322682358571,50.957156062630034,724.214063691765,8.737952010431007,0.0,136.1338179311938
237.0,11.110942887437034,50.95673840413441,724.214063691765,8.737952010431007,0.0,136.9120591135453
238.0,11.111554023960736,50.95631547793582,724.214063691765,8.737952010431007,0.0,137.6903002969209
239.0,11.112155979279066,50.95588736206016,724.214063691765,8.737952010431007,0.0,138.4685414784106
240.0,11.112748642441375,50.955454135490754,724.214063691765,8.737952010431007,0.0,139.24678266089302
241.0,11.113331904217517,50.95501587815376,724.214063691765,8.737952010431007,0.0,140.02502384300521
242.0,11.113905657117868,50.95457267090348,724.214063691765,8.737952010431007,0.0,140.8032650240067
243.0,11.114469795413186,50.95412459550735,724.214063691765,8.737952010431007,0.0,141.58150620662082
244.0,11.115024215154023,50.95367173463097,724.214063691765,8.737952010431007,0.0,142.35974739034327
245.0,11.115568814190027,50.95321417182276,724.214063691765,8.737952010431007,0.0,143.1379885722056
246.0,11.116103492188529,50.95275199149858,724.214063691765,8.737952010431007,0.0,143.91622975470023
247.0,11.116628150653128,50.952285278926205,724.214063691765,8.737952010431007,0.0,144.69447093631095
248.0,11.11714269294177,50.95181412020948,724.214063691765,8.737952010431007,0.0,145.47271211978222
249.0,11.117647024284565,50.95133860227254,724.214063691765,8.737952010431007,0.0,146.25095330218102
250.0,11.11814105180116,50.95085881284374,724.214063691765,8.737952010431007,0.0,147.02919448391958
251.0,11.11862468451784,50.95037484043944,724.214063691765,8.737952010431007,0.0,147.80743566654905
252.0,11.119097833384217,50.94988677434771,724.214063691765,8.737952010431007,0.0,148.58567684830257
253.0,11.119560411289598,50.94939470461185,724.214063691765,8.737952010431007,0.0,149.36391803056802
254.0,11.12001233307899,50.94889872201377,724.214063691765,8.737952010431007,0.0,150.1421592117511
255.0,11.12045351556867,50.948398918057265,724.214063691765,8.737952010431007,0.0,150.92040039560004
256.0,11.120883877561539,50.94789538495108,724.214063691765,8.737952010431007,0.0,151.69864157861116
257.0,11.121303339861981,50.94738821559199,724.214063691765,8.737952010431007,0.0,152.47688275880466
258.0,11.121711825290305,50.94687750354754,724.214063691765,8.737952010431007,0.0,153.25512394196335
259.0,11.12210925869698,50.9463633430389,724.214063691765,8.737952010431007,0.0,154.03336512374403
260.0,11.12249556697634,50.94584582892338,724.214063691765,8.737952010431007,0.0,154.81160630759655
261.0,11.122870679080023,50.94532505667705,724.214063691765,8.737952010431007,0.0,155.58984748943385
262.0,11.123234526029904,50.94480112237701,724.214063691765,8.737952010431007,0.0,156.36808867222817
263.0,11.123587040930772,50.94427412268371,724.214063691765,8.737952010431007,0.0,157.14632985431797
264.0,11.123928158982494,50.943744154823165,724.214063691765,8.737952010431007,0.0,157.9245710368898
265.0,11.124257817491923,50.943211316568906,724.214063691765,8.737952010431007,0.0,158.70281221890787
266.0,11.124575955884268,50.942675706224065,724.214063691765,8.737952010431007,0.0,159.4810534008875
267.0,11.124882515714205,50.94213742260315,724.214063691765,8.737952010431007,0.0,160.25929458308656
268.0,11.125177440676481,50.94159656501389,724.214063691765,8.737952010431007,0.0,161.03753576466931
269.0,11.1254606766162,50.941053233238826,724.214063691765,8.737952010431007,0.0,161.81577694789962
270.0,11.125732171538715,50.940507527516964,724.214063691765,8.737952010431007,0.0,162.59401812913643
271.0,11.125991875618979,50.93995954852529,724.214063691765,8.737952010431007,0.0,163.3722593128383
272.0,11.126239741210753,50.93940939736015,724.214063691765,8.737952010431007,0.0,164.150500493756
273.0,11.126475722855105,50.938857175518635,724.214063691765,8.737952010431007,0.0,164.92874167624336
274.0,11.126699777288707,50.93830298487982,724.214063691765,8.737952010431007,0.0,165.7069828601118
275.0,11.126911863451738,50.93774692768604,724.214063691765,8.737952010431007,0.0,166.48522404198832
276.0,11.127111942495247,50.93718910652395,724.214063691765,8.737952010431007,0.0,167.26346522295898
277.0,11.127299977788113,50.936629624305624,724.214063691765,8.737952010431007,0.0,168.0417064063763
278.0,11.12747593492378,50.93606858424959,724.214063691765,8.737952010431007,0.0,168.8199475880764
279.0,11.127639781726344,50.93550608986178,724.214063691765,8.737952010431007,0.0,169.59818877045564
280.0,11.127791488256406,50.93494224491642,724.214063691765,8.737952010431007,0.0,170.37642995229135
281.0,11.127931026816356,50.9343771534369,724.214063691765,8.737952010431007,0.0,171.1546711361832
282.0,11.128058371955433,50.933810919676546,724.214063691765,8.737952010431007,0.0,171.93291231859848
283.0,11.12817350047419,50.93324364809945,724.214063691765,8.737952010431007,0.0,172.71115350013372
284.0,11.128276391428585,50.93267544336116,724.214063691765,8.737952010431007,0.0,173.48939468333515
285.0,11.128367026133787,50.9321064102894,724.214063691765,8.737952010431007,0.0,174.26763586392894
286.0,11.128445388167307,50.93153665386465,724.214063691765,8.737952010431007,0.0,175.0458770474994
287.0,11.128511463372007,50.930966279200874,724.214063691765,8.737952010431007,0.0,175.82411823047676
288.0,11.128565239858489,50.930395391526105,724.214063691765,8.737952010431007,0.0,176.60235941255905
289.0,11.128606708007112,50.929824096162996,724.214063691765,8.737952010431007,0.0,177.3806005945744
290.0,11.128635860469615,50.92925249850943,724.214063691765,8.737952010431007,0.0,178.15884177622206
291.0,11.128652692170277,50.92868070401903,724.214063691765,8.737952010431007,0.0,178.93708295901638
292.0,11.12865720030672,50.92810881818175,724.214063691765,8.737952010431007,0.0,179.71532414218507
293.0,11.128649384350297,50.927536946504404,724.214063691765,8.737952010431007,0.0,180.4935653226026
294.0,11.128629246045904,50.926965194491196,724.214063691765,8.737952010431007,0.0,181.27180650483905
295.0,11.128596789411574,50.92639366762423,724.214063691765,8.737952010431007,0.0,182.05004768758033
296.0,11.128552020737573,50.9258224713441,724.214063691765,8.737952010431007,0.0,182.82828886996018
297.0,11.128494948585029,50.9252517110304,724.214063691765,8.737952010431007,0.0,183.6065300533655
298.0,11.128425583784235,50.92468149198227,724.214063691765,8.737952010431007,0.0,184.38477123592284
299.0,11.128343939432483,50.924111919399046,724.214063691765,8.737952010431007,0.0,185.1630124165158
300.0,11.128250030891394,50.92354309836077,724.214063691765,8.737952010431007,0.0,185.94125359911885
301.0,11.12814387578402,50.92297513380884,724.214063691765,8.737952010431007,0.0,186.71949478162858
302.0,11.128025493991373,50.92240813052664,724.214063691765,8.737952010431007,0.0,187.49773596457246
303.0,11.127894907648681,50.92184219312022,724.214063691765,8.737952010431007,0.0,188.27597714462487
304.0,11.127752141140974,50.921277425998994,724.214063691765,8.737952010431007,0.0,189.05421832777748
305.0,11.127597221098597,50.92071393335648,724.214063691765,8.737952010431007,0.0,189.83245950996593
306.0,11.12743017639201,50.92015181915107,724.214063691765,8.737952010431007,0.0,190.61070069456093
307.0,11.127251038126474,50.91959118708685,724.214063691765,8.737952010431007,0.0,191.38894187478564
308.0,11.127059839635933,50.919032140594474,724.214063691765,8.737952010431007,0.0,192.16718305729728
309.0,11.126856616476857,50.91847478281208,724.214063691765,8.737952010431007,0.0,192.9454242402965
310.0,11.126641406421527,50.91791921656629,724.214063691765,8.737952010431007,0.0,193.72366542245717
311.0,11.126414249450846,50.91736554435318,724.214063691765,8.737952010431007,0.0,194.50190660473947
312.0,11.126175187746867,50.916813868319416,724.214063691765,8.737952010431007,0.0,195.2801477875182
313.0,11.125924265684887,50.916264290243404,724.214063691765,8.737952010431007,0.0,196.0583889683585
314.0,11.125661529825038,50.91571691151652,724.214063691765,8.737952010431007,0.0,196.83663015028316
315.0,11.125387028903589,50.91517183312437,724.214063691765,8.737952010431007,0.0,197.61487133340606
316.0,11.125100813823849,50.91462915562819,724.214063691765,8.737952010431007,0.0,198.39311251654837
317.0,11.124802937646649,50.914088979146314,724.214063691765,8.737952010431007,0.0,199.17135369906288
318.0,11.124493455580364,50.913551403335624,724.214063691765,8.737952010431007,0.0,199.94959487987308
319.0,11.124172424970595,50.91301652737325,724.214063691765,8.737952010431007,0.0,200.72783606288593
320.0,11.123839905289543,50.91248444993825,724.214063691765,8.737952010431007,0.0,201.50607724430256
321.0,11.123495958124806,50.911955269193356,724.214063691765,8.737952010431007,0.0,202.28431842663548
322.0,11.123140647167958,50.91142908276695,724.214063691765,8.737952010431007,0.0,203.06255961033116
323.0,11.12277403820272,50.91090598773498,724.214063691765,8.737952010431007,0.0,203.8408007912275
324.0,11.122396199092577,50.91038608060307,724.214063691765,8.737952010431007,0.0,204.619041974941
325.0,11.12200719976829,50.909869457288735,724.214063691765,8.737952010431007,0.0,205.39728315775753
326.0,11.121607112214804,50.90935621310368,724.214063691765,8.737952010431007,0.0,206.1755243403568
327.0,11.121196010457908,50.90884644273619,724.214063691765,8.737952010431007,0.0,206.95376552180986
328.0,11.120773970550431,50.90834024023371,724.214063691765,8.737952010431007,0.0,207.7320067033589
329.0,11.120341070558112,50.90783769898545,724.214063691765,8.737952010431007,0.0,208.5102478863971
330.0,11.119897390545162,50.90733891170516,724.214063691765,8.737952010431007,0.0,209.28848906797967
331.0,11.119443012559344,50.90684397041405,724.214063691765,8.737952010431007,0.0,210.06673025067175
332.0,11.118978020616794,50.9063529664238,724.214063691765,8.737952010431007,0.0,210.8449714323968
333.0,11.118502500686418,50.90586599031971,724.214063691765,8.737952010431007,0.0,211.62321261425072
334.0,11.118016540673892,50.905383131944,724.214063691765,8.737952010431007,0.0,212.40145379838407
335.0,11.117520230405546,50.90490448037922,724.214063691765,8.737952010431007,0.0,213.1796949792438
336.0,11.117013661611509,50.90443012393183,724.214063691765,8.737952010431007,0.0,213.95793616287887
337.0,11.116496927908884,50.9039601501159,724.214063691765,8.737952010431007,0.0,214.73617734466418
338.0,11.115970124784326,50.90349464563696,724.214063691765,8.737952010431007,0.0,215.51441852677294
339.0,11.115433349576364,50.903033696376,724.214063691765,8.737952010431007,0.0,216.29265970939176
340.0,11.114886701457465,50.90257738737366,724.214063691765,8.737952010431007,0.0,217.0709008916062
341.0,11.114330281415619,50.90212580281451,724.214063691765,8.737952010431007,0.0,217.8491420744511
342.0,11.11376419223572,50.901679026011514,724.214063691765,8.737952010431007,0.0,218.6273832554271
343.0,11.113188538480472,50.901237139390695,724.214063691765,8.737952010431007,0.0,219.40562443910605
344.0,11.112603426471168,50.900800224475866,724.214063691765,8.737952010431007,0.0,220.1838656204568
345.0,11.112008964267972,50.90036836187367,724.214063691765,8.737952010431007,0.0,220.9621068033445
346.0,11.111405261649992,50.899941631258635,724.214063691765,8.737952010431007,0.0,221.74034798497456
347.0,11.110792430094989,50.89952011135851,724.214063691765,8.737952010431007,0.0,222.51858916788808
348.0,11.110170582758826,50.89910387993977,724.214063691765,8.737952010431007,0.0,223.29683034893077
349.0,11.109539834454495,50.8986930137932,724.214063691765,8.737952010431007,0.0,224.0750715312681
350.0,11.108900301631024,50.89828758871979,724.214063691765,8.737952010431007,0.0,224.8533127154279
351.0,11.10825210235194,50.8978876795167,724.214063691765,8.737952010431007,0.0,225.63155389688816
352.0,11.107595356273492,50.8974933599635,724.214063691765,8.737952010431007,0.0,226.4097950788463
353.0,11.106930184622598,50.897104702808534,724.214063691765,8.737952010431007,0.0,227.1880362616099
354.0,11.10625671017445,50.89672177975551,724.214063691765,8.737952010431007,0.0,227.96627744222417
355.0,11.105575057229913,50.89634466145029,724.214063691765,8.737952010431007,0.0,228.74451862614586
356.0,11.1048853515926,50.89597341746781,724.214063691765,8.737952010431007,0.0,229.5227598084379
357.0,11.104187720545724,50.89560811629927,724.214063691765,8.737952010431007,0.0,230.30100099062807
358.0,11.103482292828545,50.895248825339515,724.214063691765,8.737952010431007,0.0,231.0792421731274
359.0,11.102769198612748,50.89489561087457,724.214063691765,8.737952010431007,0.0,231.8574833559412
360.0,11.102048569478427,50.894548538069415,724.214063691765,8.737952010431007,0.0,232.63572453769308
361.0,11.101320538389842,50.89420767095599,724.214063691765,8.737952010431007,0.0,233.41396571991413
362.0,11.100585239670949,50.89387307242136,724.214063691765,8.737952010431007,0.0,234.19220690219896
363.0,11.099842808980668,50.893544804196075,724.214063691765,8.737952010431007,0.0,234.97044808322062
364.0,11.09909338328788,50.8932229268429,724.214063691765,8.737952010431007,0.0,235.74868926678673
365.0,11.098337100846265,50.89290749974551,724.214063691765,8.737952010431007,0.0,236.52693044984215
366.0,11.097574101168846,50.89259858109758,724.214063691765,8.737952010431007,0.0,237.3051716308911
367.0,11.096804525002256,50.89229622789209,724.214063691765,8.737952010431007,0.0,238.08341281397702
368.0,11.096028514300912,50.89200049591073,724.214063691765,8.737952010431007,0.0,238.8616539961672
369.0,11.09524621220092,50.8917114397137,724.214063691765,8.737952010431007,0.0,239.63989517841787
370.0,11.09445776299367,50.891429112629574,724.214063691765,8.737952010431007,0.0,240.41813636044574
371.0,11.093663312099295,50.89115356674547,724.214063691765,8.737952010431007,0.0,241.19637754213682
372.0,11.092863006040034,50.89088485289751,724.214063691765,8.737952010431007,0.0,241.97461872586115
373.0,11.092056992413177,50.890623020661316,724.214063691765,8.737952010431007,0.0,242.7528599088286
374.0,11.09124541986401,50.89036811834296,724.214063691765,6.0,0.0,243.53110108955275
375.0,11.090428438058439,50.89012019297004,724.214063691765,3.0,0.0,244.30934227197145
376.0,11.089616400017054,50.8898658923698,724.214063691765,0,0.0,243.59842476146457
377.0,11.088804370842292,50.889611586136404,724.214063691765,0,0.0,243.597794670669
378.0,11.08799235053417,50.88935727426997,724.214063691765,0,0.0,243.597164590673
379.0,11.087180339092706,50.889102956770614,724.214063691765,0,0.0,243.5965345180961
380.0,11.08636833651792,50.88884863363845,724.214063691765,0,0.0,243.5959044576112
381.0,11.085556342809834,50.88859430487359,724.214063691765,0,0.0,243.59527440379534
382.0,11.084744357968463,50.88833997047614,724.214063691765,0,0.0,243.5946443603413
383.0,11.083932381993826,50.88808563044621,724.214063691765,0,0.0,243.59401432531294
384.0,11.083120414885947,50.887831284783914,724.214063691765,0,0.0,243.5933842977644
385.0,11.082308456644842,50.887576933489385,724.214063691765,0,0.0,243.59275428367164
386.0,11.08149650727053,50.8873225765627,724.214063691765,0,0.0,243.59212427486443
387.0,11.080684566763027,50.887068214004,724.214063691765,0,0.0,243.59149427713993
388.0,11.07987263512236,50.8868138458134,724.214063691765,0,0.0,243.5908642883212
389.0,11.07906071234854,50.886559471990985,724.214063691765,0,0.0,243.59023430786482
390.0,11.07824879844159,50.886305092536894,724.214063691765,0,0.0,243.58960433745534
391.0,11.07743689340153,50.88605070745122,724.214063691765,0,0.0,243.58897437503288
392.0,11.076624997228377,50.885796316734094,724.214063691765,0,0.0,243.58834442441386
393.0,11.075813109922152,50.88554192038562,724.214063691765,0,0.0,243.58771448002437
394.0,11.07500123148287,50.885287518405896,724.214063691765,0,0.0,243.58708454500345
395.0,11.074189361910555,50.88503311079506,724.214063691765,0,0.0,243.5864546209737
396.0,11.073377501205222,50.88477869755321,724.214063691765,0,0.0,243.58582470541114
397.0,11.072565649366892,50.884524278680466,724.214063691765,0,0.0,243.58519479836025
398.0,11.07175380639558,50.88426985417693,724.214063691765,0,0.0,243.58456490096228
399.0,11.070941972291314,50.88401542404273,724.214063691765,0,0.0,243.58393501303814
400.0,11.070130147054106,50.88376098827796,724.214063691765,0,0.0,243.58330513329486
401.0,11.069318330683977,50.88350654688275,724.214063691765,0,0.0,243.58267526357852
402.0,11.068506523180943,50.883252099857195,724.214063691765,0,0.0,243.58204540232796
403.0,11.067694724545026,50.88299764720143,724.214063691765,0,0.0,243.5814155508803
404.0,11.066882934776244,50.88274318891555,724.214063691765,0,0.0,243.58078570851333
405.0,11.066071153874613,50.88248872499966,724.214063691765,0,0.0,243.58015587327395
406.0,11.065259381840159,50.882234255453895,724.214063691765,0,0.0,243.57952605093104
407.0,11.064447618672896,50.881979780278364,724.214063691765,0,0.0,243.5788962356705
408.0,11.063635864372841,50.88172529947317,724.214063691765,0,0.0,243.57826642920435
409.0,11.06282411894002,50.881470813038426,724.214063691765,0,0.0,243.57763663201354
410.0,11.062012382374443,50.88121632097424,724.214063691765,0,0.0,243.57700684423205
411.0,11.061200654676137,50.88096182328074,724.214063691765,0,0.0,243.5763770667774
412.0,11.060388935845111,50.880707319958034,724.214063691765,0,0.0,243.57574729691302
413.0,11.059577225881393,50.88045281100622,724.214063691765,0,0.0,243.57511753642942
414.0,11.058765524784999,50.880198296425434,724.214063691765,0,0.0,243.57448778588014
415.0,11.057953832555945,50.87994377621577,724.214063691765,0,0.0,243.57385804298207
416.0,11.057142149194252,50.879689250377346,724.214063691765,0,0.0,243.5732283117299
417.0,11.056330474699942,50.879434718910275,724.214063691765,0,0.0,243.5725985865228
418.0,11.055518809073028,50.879180181814675,724.214063691765,0,0.0,243.57196887371072
419.0,11.054707152313531,50.87892563909065,724.214063691765,0,0.0,243.57133916808462
420.0,11.05389550442147,50.878671090738315,724.214063691765,0,0.0,243.5707094712052
421.0,11.053083865396864,50.87841653675778,724.214063691765,0,0.0,243.57007978430306
422.0,11.052272235239732,50.87816197714917,724.214063691765,0,0.0,243.56945010695836
423.0,11.051460613950091,50.87790741191259,724.214063691765,0,0.0,243.56882043835958
424.0,11.050649001527963,50.87765284104815,724.214063691765,0,0.0,243.56819077912195
425.0,11.049837397973361,50.87739826455596,724.214063691765,0,0.0,243.5675611278185
426.0,11.049025803286307,50.87714368243613,724.214063691765,0,0.0,243.5669314861163
427.0,11.04821421746682,50.876889094688785,724.214063691765,0,0.0,243.56630185601227
428.0,11.047402640514921,50.87663450131404,724.214063691765,0,0.0,243.56567223195077
429.0,11.046591072430623,50.87637990231199,724.214063691765,0,0.0,243.56504261775828
430.0,11.045779513213947,50.876125297682755,724.214063691765,0,0.0,243.5644130136471
431.0,11.044967962864915,50.875870687426456,724.214063691765,0,0.0,243.56378341904636
432.0,11.04415642138354,50.8756160715432,724.214063691765,0,0.0,243.56315383275296
433.0,11.043344888769843,50.87536145003309,724.214063691765,0,0.0,243.5625242540617
434.0,11.042533365023845,50.875106822896235,724.214063691765,0,0.0,243.5618946866369
435.0,11.04172185014556,50.874852190132785,724.214063691765,0,0.0,243.56126512861522
436.0,11.040910344135009,50.87459755174282,724.214063691765,0,0.0,243.56063557933624
437.0,11.040098846992214,50.87434290772646,724.214063691765,0,0.0,243.5600060378543
438.0,11.039287358717186,50.87408825808381,724.214063691765,0,0.0,243.5593765067202
439.0,11.03847587930995,50.87383360281499,724.214063691765,0,0.0,243.55874698390855
440.0,11.03766440877052,50.87357894192013,724.214063691765,0,0.0,243.55811747287083
441.0,11.036852947098916,50.873324275399305,724.214063691765,0,0.0,243.55748796701658
442.0,11.036041494295157,50.87306960325265,724.214063691765,0,0.0,243.55685847346163
443.0,11.035230050359264,50.872814925480284,724.214063691765,0,0.0,243.55622898765745
444.0,11.034418615291248,50.87256024208231,724.214063691765,0,0.0,243.5555995113885
445.0,11.033607189091137,50.87230555305883,724.214063691765,0,0.0,243.55497004335092
446.0,11.032795771758943,50.872050858409985,724.214063691765,0,0.0,243.5543405862746
447.0,11.031984363294686,50.871796158135865,724.214063691765,0,0.0,243.55371113732295
448.0,11.031172963698385,50.87154145223658,724.214063691765,0,0.0,243.55308169596987
449.0,11.030361572970056,50.87128674071224,724.214063691765,0,0.0,243.55245226596884
450.0,11.02955019110972,50.87103202356299,724.214063691765,0,0.0,243.55182284556298
451.0,11.028738818117397,50.870777300788916,724.214063691765,0,0.0,243.55119343213957
452.0,11.027927453993101,50.87052257239013,724.214063691765,0,0.0,243.55056402958644
453.0,11.027116098736851,50.87026783836675,724.214063691765,0,0.0,243.54993463491593
454.0,11.026304752348668,50.870013098718886,724.214063691765,0,0.0,243.54930525008012
455.0,11.025493414828569,50.869758353446656,724.214063691765,0,0.0,243.5486758752579
456.0,11.024682086176574,50.869503602550175,724.214063691765,0,0.0,243.5480465089944
457.0,11.023870766392697,50.869248846029535,724.214063691765,0,0.0,243.54741714998062
458.0,11.023059455476961,50.868994083884886,724.214063691765,0,0.0,243.5467878036534
459.0,11.02224815342938,50.868739316116304,724.214063691765,0,0.0,243.54615846406628
460.0,11.021436860249976,50.868484542723905,724.214063691765,0,0.0,243.54552913154907
461.0,11.020625575938764,50.86822976370783,724.214063691765,0,0.0,243.54489981408946
462.0,11.019814300495767,50.867974979068165,724.214063691765,0,0.0,243.54427050099738
463.0,11.019003033920999,50.86772018880504,724.214063691765,0,0.0,243.5436411988175
464.0,11.01819177621448,50.867465392918554,724.214063691765,0,0.0,243.54301190642505
465.0,11.017380527376227,50.86721059140882,724.214063691765,0,0.0,243.54238262114612
466.0,11.01656928740626,50.86695578427596,724.214063691765,0,0.0,243.54175334655469
467.0,11.015758056304593,50.86670097152008,724.214063691765,0,0.0,243.54112408116276
468.0,11.014946834071248,50.86644615314128,724.214063691765,0,0.0,243.54049482237448
469.0,11.014135620706247,50.86619132913972,724.214063691765,0,0.0,243.53986557802617
470.0,11.0133244162096,50.86593649951545,724.214063691765,0,0.0,243.53923633688612
471.0,11.01251322058133,50.86568166426862,724.214063691765,0,0.0,243.53860710866957
472.0,11.011702033821452,50.86542682339933,724.214063691765,0,0.0,243.53797788870597
473.0,11.010890855929986,50.8651719769077,724.214063691765,0,0.0,243.5373486778061
474.0,11.010079686906952,50.86491712479385,724.214063691765,0,0.0,243.53671947616527
475.0,11.009268526752367,50.864662267057874,724.214063691765,0,0.0,243.53609028382817
476.0,11.008457375466246,50.864407403699886,724.214063691765,0,0.0,243.5354611003584
477.0,11.00764623304861,50.864152534720006,724.214063691765,0,0.0,243.53483192595132
478.0,11.006835099499478,50.863897660118354,724.214063691765,0,0.0,243.53420276099797
479.0,11.006023974818865,50.86364277989503,724.214063691765,0,0.0,243.53357360495608
480.0,11.005212859006791,50.86338789405015,724.214063691765,0,0.0,243.5329444581269
481.0,11.004401752063277,50.86313300258383,724.214063691765,0,0.0,243.53231532097485
482.0,11.003590653988333,50.86287810549618,724.214063691765,0,0.0,243.53168619154764
483.0,11.002779564781981,50.862623202787304,724.214063691765,0,0.0,243.53105707275873
484.0,11.001968484444244,50.86236829445733,724.214063691765,0,0.0,243.53042796270074
485.0,11.001157412975134,50.86211338050636,724.214063691765,0,0.0,243.52979886117782
486.0,11.000346350374674,50.86185846093451,724.214063691765,0,0.0,243.52916976948148
487.0,10.999535296642874,50.8616035357419,724.214063691765,0,0.0,243.5285406870247
488.0,10.998724251779759,50.86134860492863,724.214063691765,0,0.0,243.52791161344865
489.0,10.997913215785342,50.86109366849481,724.214063691765,0,0.0,243.52728254897718
490.0,10.997102188659646,50.86083872644057,724.214063691765,0,0.0,243.5266534935204
491.0,10.996291170402685,50.860583778766,724.214063691765,0,0.0,243.52602444740813
492.0,10.99548016101448,50.860328825471235,724.214063691765,0,0.0,243.52539541031007
493.0,10.994669160495047,50.860073866556384,724.214063691765,0,0.0,243.52476638378658
494.0,10.993858168844406,50.859818902021544,724.214063691765,0,0.0,243.5241373638156
495.0,10.99304718606257,50.85956393186684,724.214063691765,0,0.0,243.52350835488335
496.0,10.99223621214956,50.85930895609238,724.214063691765,0,0.0,243.52287935491944
497.0,10.991425247105395,50.85905397469827,724.214063691765,0,0.0,243.52225036269306
498.0,10.990614290930093,50.858798987684644,724.214063691765,0,0.0,243.52162138194058
499.0,10.98980334362367,50.8585439950516,724.214063691765,0,0.0,243.52099240958523
500.0,10.98899240518614,50.85828899679924,724.214063691765,0,0.0,243.5203634445146
501.0,10.988181475617532,50.858033992927695,724.214063691765,0,0.0,243.51973449066418
502.0,10.987370554917854,50.85777898343707,724.214063691765,0,0.0,243.51910554556895
503.0,10.986559643087125,50.85752396832748,724.214063691765,0,0.0,243.51847660953
504.0,10.985748740125366,50.85726894759903,724.214063691765,0,0.0,243.51784768179738
505.0,10.984937846032597,50.85701392125184,724.214063691765,0,0.0,243.5172187637358
506.0,10.984126960808828,50.85675888928603,724.214063691765,0,0.0,243.5165898562904
507.0,10.98331608445408,50.85650385170169,724.214063691765,0,0.0,243.515960955529
508.0,10.982505216968374,50.856248808498954,724.214063691765,0,0.0,243.5153320654442
509.0,10.981694358351724,50.85599375967792,724.214063691765,0,0.0,243.51470318393353
510.0,10.980883508604151,50.855738705238714,724.214063691765,0,0.0,243.51407431195815
511.0,10.980072667725668,50.85548364518143,724.214063691765,0,0.0,243.51344544860132
512.0,10.979261835716299,50.8552285795062,724.214063691765,0,0.0,243.51281659497477
513.0,10.978451012576055,50.85497350821313,724.214063691765,0,0.0,243.5121877505366
514.0,10.97764019830496,50.85471843130232,724.214063691765,0,0.0,243.51155891473226
515.0,10.976829392903024,50.854463348773905,724.214063691765,0,0.0,243.51093008930155
516.0,10.976018596370274,50.854208260627985,724.214063691765,0,0.0,243.51030127127362
517.0,10.975207808706722,50.85395316686468,724.214063691765,0,0.0,243.50967246471473
518.0,10.974397029912385,50.85369806748408,724.214063691765,0,0.0,243.50904366459685
519.0,10.97358625998728,50.85344296248633,724.214063691765,0,0.0,243.5084148756174
520.0,10.972775498931432,50.85318785187152,724.214063691765,0,0.0,243.50778609494026
521.0,10.971964746744849,50.85293273563976,724.214063691765,0,0.0,243.50715732349448
522.0,10.971154003427554,50.85267761379118,724.214063691765,0,0.0,243.5065285609657
523.0,10.970343268979564,50.85242248632588,724.214063691765,0,0.0,243.50589980777352
524.0,10.969532543400895,50.85216735324397,724.214063691765,0,0.0,243.50527106400742
525.0,10.968721826691567,50.85191221454558,724.214063691765,0,0.0,243.50464232977282
526.0,10.967911118851596,50.8516570702308,724.214063691765,0,0.0,243.50401360349304
527.0,10.967100419880998,50.85140192029976,724.214063691765,0,0.0,243.50338488801958
528.0,10.966289729779792,50.85114676475257,724.214063691765,0,0.0,243.50275618098107
529.0,10.965479048548,50.85089160358934,724.214063691765,0,0.0,243.50212748228745
530.0,10.96466837618563,50.85063643681018,724.214063691765,0,0.0,243.5014987934383
531.0,10.963857712692706,50.8503812644152,724.214063691765,0,0.0,243.5008701132636
532.0,10.963047058069247,50.85012608640451,724.214063691765,0,0.0,243.50024144147795
533.0,10.962236412315262,50.849870902778235,724.214063691765,0,0.0,243.4996127823428
534.0,10.961425775430781,50.84961571353649,724.214063691765,0,0.0,243.49898412860995
535.0,10.96061514741581,50.84936051867937,724.214063691765,0,0.0,243.49835548586088
536.0,10.95980452827037,50.849105318207,724.214063691765,0,0.0,243.49772685292578
537.0,10.958993917994484,50.84885011211948,724.214063691765,0,0.0,243.49709822552688
538.0,10.958183316588162,50.84859490041694,724.214063691765,0,0.0,243.4964696113026
539.0,10.957372724051424,50.84833968309949,724.214063691765,0,0.0,243.49584100522537
540.0,10.956562140384287,50.84808446016722,724.214063691765,0,0.0,243.49521240676955
541.0,10.95575156558677,50.847829231620274,724.214063691765,0,0.0,243.4945838188314
542.0,10.954940999658888,50.84757399745874,724.214063691765,0,0.0,243.49395523932475
543.0,10.954130442600663,50.84731875768275,724.214063691765,0,0.0,243.49332667081572
544.0,10.953319894412106,50.847063512292394,724.214063691765,0,0.0,243.4926981083509
545.0,10.95250935509324,50.84680826128781,724.214063691765,0,0.0,243.49206955850437
546.0,10.951698824644076,50.84655300466909,724.214063691765,0,0.0,243.4914410147016
547.0,10.950888303064636,50.846297742436356,724.214063691765,0,0.0,243.4908124821806
548.0,10.950077790354937,50.846042474589716,724.214063691765,0,0.0,243.49018395690413
549.0,10.949267286514997,50.8457872011293,724.214063691765,0,0.0,243.48955544394397
550.0,10.948456791544832,50.84553192205518,724.214063691765,0,0.0,243.48892693623185
551.0,10.947646305444458,50.84527663736751,724.214063691765,0,0.0,243.48829844136085
552.0,10.94683582821389,50.84502134706639,724.214063691765,0,0.0,243.48766995419825
553.0,10.946025359853152,50.84476605115193,724.214063691765,0,0.0,243.48704147442942
554.0,10.94521490036226,50.84451074962423,724.214063691765,0,0.0,243.48641300521984
555.0,10.944404449741226,50.84425544248343,724.214063691765,0,0.0,243.4857845474246
556.0,10.94359400799007,50.84400012972961,724.214063691765,0,0.0,243.48515609382545
557.0,10.942783575108809,50.84374481136291,724.214063691765,0,0.0,243.48452765350135
558.0,10.941973151097466,50.84348948738343,724.214063691765,0,0.0,243.48389922098966
559.0,10.941162735956047,50.84323415779128,724.214063691765,0,0.0,243.48327079664946
560.0,10.940352329684577,50.84297882258658,724.214063691765,0,0.0,243.48264238340795
561.0,10.939541932283072,50.84272348176944,724.214063691765,0,0.0,243.4820139775427
562.0,10.938731543751546,50.84246813533997,724.214063691765,0,0.0,243.48138558260956
563.0,10.93792116409002,50.842212783298294,724.214063691765,0,0.0,243.4807571957279
564.0,10.93711079329851,50.84195742564451,724.214063691765,0,0.0,243.48012881784257
565.0,10.936300431377033,50.84170206237872,724.214063691765,0,0.0,243.47950044856285
566.0,10.935490078325605,50.84144669350107,724.214063691765,0,0.0,243.47887209055992
567.0,10.934679734144247,50.84119131901165,724.214063691765,0,0.0,243.47824374012706
568.0,10.933869398832966,50.840935938910576,724.214063691765,0,0.0,243.47761539895907
569.0,10.93305907239179,50.840680553197956,724.214063691765,0,0.0,243.47698706746192
570.0,10.932248754820733,50.84042516187391,724.214063691765,0,0.0,243.47635874428397
571.0,10.931438446119811,50.84016976493856,724.214063691765,0,0.0,243.4757304311962
572.0,10.930628146289042,50.839914362391994,724.214063691765,0,0.0,243.47510212671233
573.0,10.929817855328439,50.83965895423435,724.214063691765,0,0.0,243.4744738324079
574.0,10.929007573238025,50.83940354046571,724.214063691765,0,0.0,243.47384554477168
575.0,10.928197300017812,50.83914812108622,724.214063691765,0,0.0,243.4732172688747
576.0,10.92738703566782,50.838892696095975,724.214063691765,0,0.0,243.47258900135603
577.0,10.926576780188064,50.83863726549508,724.214063691765,0,0.0,243.47196074244002
578.0,10.925766533578564,50.83838182928367,724.214063691765,0,0.0,243.47133249389748
579.0,10.924956295839335,50.838126387461834,724.214063691765,0,0.0,243.47070425296704
580.0,10.924146066970392,50.837870940029696,724.214063691765,0,0.0,243.47007602263426
581.0,10.92333584697176,50.837615486987374,724.214063691765,0,0.0,243.46944780058863
582.0,10.922525635843446,50.83736002833497,724.214063691765,0,0.0,243.46881958723435
583.0,10.92171543358547,50.837104564072604,724.214063691765,0,0.0,243.46819138453736
584.0,10.92090524019785,50.83684909420038,724.214063691765,0,0.0,243.46756318978132
585.0,10.920095055680605,50.836593618718425,724.214063691765,0,0.0,243.46693500406138
586.0,10.919284880033745,50.83633813762683,724.214063691765,0,0.0,243.4663068289376
587.0,10.918474713257293,50.83608265092572,724.214063691765,0,0.0,243.46567866067406
588.0,10.917664555351266,50.83582715861522,724.214063691765,0,0.0,243.46505050410153
589.0,10.916854406315679,50.835571660695415,724.214063691765,0,0.0,243.46442235461353
590.0,10.916044266150548,50.835316157166446,724.214063691765,0,0.0,243.46379421615595
591.0,10.915234134855892,50.8350606480284,724.214063691765,0,0.0,243.46316608535255
592.0,10.914424012431725,50.83480513328141,724.214063691765,0,0.0,243.46253796386867
593.0,10.913613898878067,50.83454961292557,724.214063691765,0,0.0,243.46190985284426
594.0,10.91280379419493,50.83429408696101,724.214063691765,0,0.0,243.46128174899314
595.0,10.911993698382338,50.83403855538783,724.214063691765,0,0.0,243.4606536554212
596.0,10.9111836114403,50.83378301820614,724.214063691765,0,0.0,243.46002557053734
597.0,10.910373533368839,50.833527475416076,724.214063691765,0,0.0,243.45939749711732
598.0,10.90956346416797,50.83327192701773,724.214063691765,0,0.0,243.45876942873932
599.0,10.908753403837707,50.83301637301121,724.214063691765,0,0.0,243.45814137332465
600.0,10.90794335237807,50.83276081339664,724.214063691765,0,0.0,243.45751332424192
601.0,10.907133309789073,50.83250524817413,724.214063691765,0,0.0,243.45688528594673
602.0,10.906323276070735,50.832249677343796,724.214063691765,0,0.0,243.4562572575386
603.0,10.905513251223072,50.831994100905746,724.214063691765,0,0.0,243.45562923540152
604.0,10.904703235246101,50.831738518860085,724.214063691765,0,0.0,243.4550012251015
605.0,10.903893228139838,50.83148293120695,724.214063691765,0,0.0,243.45437322392257
606.0,10.903083229904297,50.83122733794642,724.214063691765,0,0.0,243.45374523006427
607.0,10.9022732405395,50.83097173907863,724.214063691765,0,0.0,243.45311724552172
608.0,10.90146326004546,50.83071613460368,724.214063691765,0,0.0,243.45248927119482
609.0,10.900653288422196,50.830460524521705,724.214063691765,0,0.0,243.4518613070383
610.0,10.899843325669723,50.83020490883279,724.214063691765,0,0.0,243.4512333499614
611.0,10.899033371788057,50.82994928753706,724.214063691765,0,0.0,243.45060540309936
612.0,10.898223426777218,50.82969366063463,724.214063691765,0,0.0,243.44997746546187
613.0,10.89741349063722,50.829438028125615,724.214063691765,0,0.0,243.44934953646342
614.0,10.896603563368078,50.82918239001012,724.214063691765,0,0.0,243.44872161701903
615.0,10.895793644969809,50.82892674628825,724.214063691765,0,0.0,243.44809370612327
616.0,10.894983735442432,50.828671096960136,724.214063691765,0,0.0,243.44746580506614
617.0,10.894173834785963,50.82841544202588,724.214063691765,0,0.0,243.4468379130372
618.0,10.893363943000418,50.828159781485596,724.214063691765,0,0.0,243.44621003012628
619.0,10.892554060085812,50.82790411533939,724.214063691765,0,0.0,243.445582155958
620.0,10.891744186042168,50.827648443587385,724.214063691765,0,0.0,243.4449542910573
621.0,10.890934320869492,50.82739276622969,724.214063691765,0,0.0,243.44432643626385
622.0,10.890124464567808,50.827137083266415,724.214063691765,0,0.0,243.4436985895074
623.0,10.889314617137128,50.82688139469768,724.214063691765,0,0.0,243.44307075252766
624.0,10.888504778577472,50.82662570052358,724.214063691765,0,0.0,243.44244292386946
625.0,10.887694948888857,50.826370000744255,724.214063691765,0,0.0,243.44181510656267
626.0,10.886885128071295,50.82611429535979,724.214063691765,0,0.0,243.44118729528162
627.0,10.88607531612481,50.825858584370316,724.214063691765,0,0.0,243.44055949545657
628.0,10.88526551304941,50.825602867775935,724.214063691765,0,0.0,243.43993170402695
629.0,10.884455718845116,50.82534714557676,724.214063691765,0,0.0,243.4393039212026
630.0,10.883645933511941,50.82509141777292,724.214063691765,0,0.0,243.43867614905338
631.0,10.882836157049907,50.824835684364494,724.214063691765,0,0.0,243.43804838432382
632.0,10.882026389459027,50.82457994535163,724.214063691765,0,0.0,243.43742063046392
633.0,10.881216630739313,50.824324200734424,724.214063691765,0,0.0,243.43679288433827
634.0,10.880406880890792,50.82406845051298,724.214063691765,0,0.0,243.43616514696663
635.0,10.879597139913471,50.823812694687426,724.214063691765,0,0.0,243.43553742097387
636.0,10.87878740780737,50.823556933257876,724.214063691765,0,0.0,243.43490970329964
637.0,10.877977684572505,50.82330116622442,724.214063691765,0,0.0,243.4342819926987
638.0,10.877167970208893,50.82304539358719,724.214063691765,0,0.0,243.43365429401584
639.0,10.876358264716547,50.8227896153463,724.214063691765,0,0.0,243.43302660302083
640.0,10.875548568095487,50.82253383150185,724.214063691765,0,0.0,243.43239892185835
641.0,10.87473888034573,50.822278042053966,724.214063691765,0,0.0,243.43177124947823
642.0,10.873929201467288,50.82202224700276,724.214063691765,0,0.0,243.4311435870202
643.0,10.873119531460182,50.82176644634833,724.214063691765,0,0.0,243.43051593277397
644.0,10.872309870324422,50.821510640090786,724.214063691765,0,0.0,243.4298882873544
645.0,10.871500218060028,50.82125482823026,724.214063691765,0,0.0,243.42926065152614
646.0,10.87069057466702,50.82099901076685,724.214063691765,0,0.0,243.42863302495894
647.0,10.86988094014541,50.82074318770068,724.214063691765,0,0.0,243.42800540916755
648.0,10.869071314495214,50.820487359031866,724.214063691765,0,0.0,243.42737780139186
649.0,10.868261697716445,50.82023152476049,724.214063691765,0,0.0,243.4267502004467
650.0,10.867452089809127,50.81997568488669,724.214063691765,0,0.0,243.42612261090636
651.0,10.86664249077327,50.81971983941057,724.214063691765,0,0.0,243.42549502951613
652.0,10.865832900608893,50.81946398833225,724.214063691765,0,0.0,243.42486745924526
653.0,10.865023319316014,50.819208131651855,724.214063691765,0,0.0,243.42423989755886
654.0,10.864213746894645,50.81895226936947,724.214063691765,0,0.0,243.42361234298676
655.0,10.863404183344805,50.81869640148521,724.214063691765,0,0.0,243.42298479933834
656.0,10.862594628666505,50.8184405279992,724.214063691765,0,0.0,243.42235726383885
657.0,10.861785082859768,50.81818464891156,724.214063691765,0,0.0,243.42172974002733
658.0,10.860975545924607,50.81792876422238,724.214063691765,0,0.0,243.42110222133437
659.0,10.860166017861038,50.817672873931784,724.214063691765,0,0.0,243.42047471455408
660.0,10.859356498669076,50.81741697803989,724.214063691765,0,0.0,243.41984721664156
661.0,10.858546988348738,50.817161076546796,724.214063691765,0,0.0,243.41921972770137
662.0,10.857737486900042,50.816905169452625,724.214063691765,0,0.0,243.41859224692342
663.0,10.856927994323003,50.8166492567575,724.214063691765,0,0.0,243.41796477781716
664.0,10.856118510617636,50.81639333846151,724.214063691765,0,0.0,243.4173373152079
665.0,10.855309035783954,50.81613741456477,724.214063691765,0,0.0,243.41670986170516
666.0,10.854499569821977,50.81588148506741,724.214063691765,0,0.0,243.41608241949825
667.0,10.853690112731725,50.81562554996953,724.214063691765,0,0.0,243.41545498564727
668.0,10.852880664513206,50.81536960927126,724.214063691765,0,0.0,243.41482756079728
669.0,10.852071225166439,50.81511366297268,724.214063691765,0,0.0,243.41420014373273
670.0,10.85126179469144,50.81485771107392,724.214063691765,0,0.0,243.41357273833808
671.0,10.850452373088226,50.8146017535751,724.214063691765,0,0.0,243.41294534000875
672.0,10.849642960356812,50.814345790476324,724.214063691765,0,0.0,243.41231795240378
673.0,10.848833556497215,50.81408982177771,724.214063691765,0,0.0,243.41169057357337
674.0,10.848024161509446,50.813833847479366,724.214063691765,0,0.0,243.4110632022277
675.0,10.84721477539353,50.813577867581394,724.214063691765,0,0.0,243.4104358414254
676.0,10.846405398149479,50.81332188208393,724.214063691765,0,0.0,243.40980849119666
677.0,10.845596029777301,50.813065890987076,724.214063691765,0,0.0,243.4091811490219
678.0,10.844786670277024,50.81280989429093,724.214063691765,0,0.0,243.4085538137305
679.0,10.843977319648655,50.81255389199563,724.214063691765,0,0.0,243.40792649133655
