Time,Longitude  ,Latitude,Altitude,Roll (deg),Pitch (deg),Yaw (deg)
0.0,10.9398,50.9815,315.7728,0,0.0,0.0
1.0,10.939799999999991,50.9815,316.4326488056778,0,5.0,270.0
2.0,10.939799999999991,50.9815,317.65234846398425,0,5.0,0.0
3.0,10.939799999999991,50.9815,319.4319027372045,0,5.0,0.0
4.0,10.939799999999991,50.9815,321.7713171029663,0,5.0,0.0
5.0,10.939799999999991,50.9815,324.6705987542525,0,5.0,0.0
6.0,10.939799999999991,50.9815,328.12975659941765,0,5.0,0.0
7.0,10.939799999999991,50.9815,332.148801262208,0,5.0,0.0
8.0,10.939799999999991,50.9815,336.7277450817859,0,5.0,0.0
9.0,10.939799999999991,50.9815,341.8666021127578,0,5.0,0.0
10.0,10.939799999999991,50.9815,347.5653881252063,0,5.0,0.0
11.0,10.939799999999991,50.9815,353.8241206047261,0,5.0,0.0
12.0,10.939799999999991,50.9815,360.6428187524636,0,5.0,0.0
13.0,10.939799999999991,50.9815,368.0215034851608,0,5.0,0.0
14.0,10.939799999999991,50.9815,375.9601974352028,0,5.0,0.0
15.0,10.939799999999991,50.9815,384.4589249506695,0,5.0,0.0
16.0,10.939799999999991,50.9815,393.5177120953906,0,5.0,0.0
17.0,10.939799999999991,50.9815,403.1365866490055,0,5.0,0.0
18.0,10.939851484446422,50.981495444619995,412.7092935495821,0,5.0,98.00000000508157
19.0,10.939912453904782,50.98149004999639,422.3358621461037,0,5.0,97.99999998767555
20.0,10.939982908371633,50.981483816128396,432.01632195175694,0,5.0,97.99999998296403
21.0,10.940062847843024,50.981476743015236,441.7507026440203,0,5.0,97.999999996383
22.0,10.940152272314492,50.981468830656155,451.5390340647527,0,5.0,97.99999999050027
23.0,10.940251181781008,50.98146007905036,461.38134622028264,0,5.0,98.00000000382715
24.0,10.940359576237057,50.98145048819709,471.27766928149805,0,5.0,98.00000000253453
25.0,10.940477455676614,50.98144005809559,481.2280335839362,0,5.0,97.99999999764822
26.0,10.940604820093142,50.981428788745085,491.23246962787454,0,5.0,97.99999999612055
27.0,10.940741669479564,50.9814166801448,501.2910080784216,0,5.0,98.00000000527075
28.0,10.940888003828348,50.98140373229396,511.40367976560896,0,5.0,97.99999999812957
29.0,10.941043823131366,50.9813899451918,521.570515684483,0,5.0,98.00000000218802
30.0,10.941209127380063,50.98137531883756,531.7915469951978,0,5.0,98.00000000092831
31.0,10.941383916565314,50.981359853230444,542.066805023108,0,5.0,98.0000000023557
32.0,10.941568190677486,50.98134354836973,552.3963212588628,0,5.0,97.99999998914996
33.0,10.94176194970646,50.9813264042546,562.7801273584994,0,5.0,97.99999999888917
34.0,10.94196519364155,50.9813084208843,573.218255143538,0,5.0,97.99999999958646
35.0,10.942177922471615,50.98128959825806,583.7107366010772,0,5.0,97.99999999964109
36.0,10.942400136184915,50.98126993637511,594.2576038838886,0,5.0,97.99999999699662
37.0,10.942631834769315,50.98124943523468,604.8588893105137,0,5.0,97.99999999641784
38.0,10.942873018212083,50.981228094836005,615.5146253653604,0,5.0,97.99999999830482
39.0,10.943123686499973,50.98120591517831,626.2248446987994,0,5.0,97.9999999986087
40.0,10.943383839619258,50.981182896260805,636.9895801272623,0,5.0,98.00000000325622
41.0,10.94365347755567,50.981159038082765,647.8088646333396,0,5.0,97.99999999667756
42.0,10.943932600294431,50.98113434064337,658.6827313658789,0,5.0,98.00000000347745
43.0,10.944221207820306,50.98110880394191,669.6112136400843,0,5.0,97.99999999688714
44.0,10.944519300117463,50.98108242797755,680.5943449376157,0,5.0,98.00000000052273
45.0,10.94482687716959,50.98105521274956,691.6321589066887,0,5.0,97.99999999964416
46.0,10.945143938959859,50.98102715825715,702.7246893621755,0,5.0,98.00000000444805
47.0,10.945470485470906,50.980998264499554,713.8719702857053,0,5.0,98.00000000298496
48.0,10.94585690203371,50.98096407314677,724.9564846260112,0,-5.0,97.99999999970197
49.0,10.946268313283014,50.98092767011309,735.9782663345238,0,-5.0,97.99999999804083
50.0,10.946704719158845,50.98088905539315,746.9373491685258,0,-5.0,98.00000000025238
51.0,10.947166119597767,50.98084822898164,757.8337666912574,0,-5.0,97.99999999650157
52.0,10.947652514532678,50.980805190873205,768.667552272023,0,-5.0,97.99999999976126
53.0,10.94814060794073,50.980762002433565,779.4387390862955,0,-5.0,98.00000000076352
54.0,10.948628700894773,50.980718813993924,790.1473601175016,0,-5.0,98.0000000010973
55.0,10.949116793394808,50.980675625554284,800.7934481572479,0,-5.0,97.99999999907169
56.0,10.949604885440806,50.98063243711465,811.3770358054242,0,-5.0,98.00000000048641
57.0,10.950092977032767,50.98058924867501,821.8981554703064,0,-5.0,98.00000000128631
58.0,10.95058106817072,50.980546060235376,832.3568393686587,0,-5.0,97.99999999994816
59.0,10.951069158854665,50.98050287179575,842.7531195258349,0,-5.0,97.99999999915815
60.0,10.951557249084573,50.980459683356116,853.0870277758793,0,-5.0,98.00000000120133
61.0,10.952045338860472,50.98041649491648,863.3585957616272,0,-5.0,98.00000000049909
62.0,10.952533428182335,50.98037330647686,873.5678549348045,0,-5.0,98.00000000080826
63.0,10.953021517050189,50.98033011803724,883.7148365561268,0,-5.0,97.9999999983977
64.0,10.953509605464035,50.98028692959762,893.799571695398,0,-5.0,97.99999999888735
65.0,10.953997693423872,50.980243741158006,903.8220912316078,0,-5.0,97.99999999878781
66.0,10.954485780929701,50.980200552718394,913.7824258530296,0,-5.0,97.99999999875786
67.0,10.954973867981522,50.98015736427877,923.6806060573167,0,-5.0,98.00000000162805
68.0,10.955461954579334,50.98011417583914,933.5166621515987,0,-5.0,98.00000000160873
69.0,10.955950040723138,50.980070987399515,943.2906242525765,0,-5.0,98.00000000158184
70.0,10.956438126412934,50.980027798959895,953.002522286618,0,-5.0,98.00000000046145
71.0,10.956926211648721,50.979984610520276,962.6523859898516,0,-5.0,98.00000000110379
72.0,10.9574142964305,50.97994142208066,972.2402449082601,0,-5.0,98.00000000054985
73.0,10.95790238075827,50.979898233641045,981.7661283977741,0,-5.0,98.00000000120275
74.0,10.958390464632032,50.979855045201425,991.230065624364,0,-5.0,98.00000000245541
75.0,10.958878548051814,50.97981185676181,1000.6320855641322,0,-5.0,98.0000000009627
76.0,10.959366631017588,50.9797686683222,1009.9722170034045,0,-5.0,98.00000000222587
77.0,10.959854713529353,50.97972547988259,1019.2504885388202,0,-5.0,98.00000000123259
78.0,10.960342795587138,50.97968229144299,1028.4669285774228,0,-5.0,97.99999999916133
79.0,10.960830877190915,50.97963910300339,1037.621565336749,0,-5.0,97.99999999878582
80.0,10.961318958340684,50.979595914563795,1046.714426844918,0,-5.0,98.00000000014734
81.0,10.961807039036472,50.979552726124204,1055.7455409407198,0,-5.0,97.99999999990087
82.0,10.96229511927828,50.9795095376846,1064.714935273702,0,-5.0,98.00000000086135
83.0,10.962783199066081,50.979466349245,1073.622637304258,0,-5.0,98.00000000108855
84.0,10.963271278399901,50.97942316080541,1082.4686743037132,0,-5.0,98.00000000034072
85.0,10.963759357279741,50.97937997236581,1091.2530733544104,0,-5.0,98.00000000072265
86.0,10.964247435705573,50.97933678392622,1099.9758613497957,0,-5.0,98.00000000047424
87.0,10.964735513677425,50.97929359548663,1108.6370649945027,0,-5.0,97.99999999975512
88.0,10.965223591195297,50.97925040704705,1117.236710804437,0,-5.0,98.00000000024295
89.0,10.96571166825916,50.979207218607456,1125.77482510686,0,-5.0,97.9999999999975
90.0,10.966199744869044,50.97916403016787,1134.2514340404703,0,-5.0,98.00000000107747
91.0,10.966687821024948,50.979120841728275,1142.666563555488,0,-5.0,98.00000000278283
92.0,10.967175896726872,50.97907765328869,1151.0202394137352,0,-5.0,98.00000000157291
93.0,10.967663971974815,50.9790344648491,1159.3124871887176,0,-5.0,98.00000000154427
94.0,10.968152046768779,50.97899127640952,1167.5433322657045,0,-5.0,98.00000000095218
95.0,10.968640121108763,50.97894808796995,1175.7127998418096,0,-5.0,97.99999999982248
96.0,10.969128194994767,50.97890489953037,1183.8209149260695,0,-5.0,97.99999999984823
97.0,10.96961626842679,50.978861711090794,1191.867702339523,0,-5.0,98.00000000161106
98.0,10.970104341404834,50.97881852265123,1199.853186715289,0,-5.0,97.99999999881692
99.0,10.970592413928927,50.97877533421166,1207.7773924986443,0,-5.0,97.99999999957134
100.0,10.971080485999039,50.9787321457721,1215.6403439471003,0,-5.0,97.99999999911392
101.0,10.971568557615171,50.97868895733253,1223.4420651304795,0,-5.0,97.99999999978627
102.0,10.972056628777324,50.97864576889297,1231.182579930991,0,-5.0,97.99999999994668
103.0,10.972544699485525,50.978602580453405,1238.861912043307,0,-5.0,98.00000000024363
104.0,10.973032769739746,50.97855939201385,1246.4800849746352,0,-5.0,97.99999999806278
105.0,10.973520839540015,50.97851620357429,1254.0371220447946,0,-5.0,98.00000000072214
106.0,10.974008908886304,50.97847301513473,1261.5330463862883,0,-5.0,97.99999999802174
107.0,10.974496977778642,50.97842982669518,1268.9678809443765,0,-5.0,98.00000000011022
108.0,10.974985046217,50.97838663825562,1276.341648477148,0,-5.0,98.00000000037954
109.0,10.975473114201407,50.97834344981607,1283.6543715555936,0,-5.0,97.99999999901507
110.0,10.975961181731833,50.978300261376525,1290.9060725636748,0,-5.0,97.99999999987648
111.0,10.97644924880828,50.97825707293698,1298.0967736983962,0,-5.0,98.00000000075602
112.0,10.976937315430774,50.97821388449743,1305.2264969698747,0,-5.0,98.00000000063483
113.0,10.977425381599318,50.97817069605787,1312.2952642014086,0,-5.0,98.00000000108753
114.0,10.97791344731391,50.978127507618325,1319.3030970295465,0,-5.0,98.0000000003954
115.0,10.97840151257455,50.978084319178784,1326.2500169041555,0,-5.0,97.99999999913985
116.0,10.97888957738121,50.97804113073924,1333.1360450884886,0,-5.0,97.99999999955435
117.0,10.979377641733947,50.97799794229971,1339.9612026592515,0,-5.0,98.00000000019804
118.0,10.979865705632733,50.97795475386017,1346.7255105066695,0,-5.0,97.99999999902269
119.0,10.980353769077539,50.977911565420634,1353.4289893345524,0,-5.0,97.9999999994659
120.0,10.980841832068393,50.9778683769811,1360.0716596603604,0,-5.0,98.00000000179028
121.0,10.981329894605324,50.97782518854155,1366.6535418152687,0,-5.0,98.00000000018048
122.0,10.981817956688303,50.97778200010202,1373.1746559442306,0,-5.0,97.99999999965922
123.0,10.982306018317303,50.977738811662476,1379.6350220060424,0,-5.0,98.00000000308273
124.0,10.982794079492379,50.97769562322294,1386.0346597734047,0,-5.0,97.99999999920124
125.0,10.983282140213504,50.977652434783415,1392.3735888329857,0,-5.0,98.00000000106058
126.0,10.983770200480706,50.977609246343896,1398.6518285854822,0,-5.0,97.99999999895999
127.0,10.984258260293956,50.97756605790438,1404.8693982456814,0,-5.0,97.99999999678488
128.0,10.984746319653254,50.97752286946487,1411.0263168425204,0,-5.0,97.99999999925444
129.0,10.985234378558602,50.97747968102534,1417.1226032191469,0,-5.0,97.99999999999761
130.0,10.985722437010025,50.97743649258583,1423.1582760329782,0,-5.0,97.9999999974138
131.0,10.986210495007498,50.97739330414632,1429.13335375576,0,-5.0,98.00000000051932
132.0,10.986698552551047,50.97735011570679,1435.0478546736247,0,-5.0,98.00000000027228
133.0,10.987186609640645,50.97730692726728,1440.9017968871483,0,-5.0,97.9999999993691
134.0,10.987674666276291,50.97726373882777,1446.6951983114081,0,-5.0,98.00000000020299
135.0,10.988162722458014,50.97722055038826,1452.428076676039,0,-5.0,97.99999999945453
136.0,10.988650778185814,50.97717736194875,1458.1004495252887,0,-5.0,98.0000000004431
137.0,10.989138833459663,50.977134173509235,1463.7123342180737,0,-5.0,98.00000000074988
138.0,10.989626888279616,50.97709098506972,1469.2637479280334,0,-5.0,98.00000000133736
139.0,10.990114942645619,50.97704779663021,1474.7547076435842,0,-5.0,98.00000000051733
140.0,10.990602996557698,50.97700460819069,1480.1852301679735,0,-5.0,98.00000000218574
141.0,10.991091050015854,50.97696141975119,1485.5553321193318,0,-5.0,97.99999999977587
142.0,10.991579103020086,50.97691823131169,1490.8650299307253,0,-5.0,97.99999999912876
143.0,10.992067155570368,50.976875042872194,1496.114339850208,0,-5.0,97.99999999957015
144.0,10.992555207666726,50.9768318544327,1501.3032779408722,0,-5.0,97.999999998985
145.0,10.993043259309161,50.976788665993205,1506.4318600809,0,-5.0,98.0000000007185
146.0,10.993531310497673,50.976745477553706,1511.5001019636118,0,-5.0,98.00000000188851
147.0,10.99401936123229,50.97670228911421,1516.508019097517,0,-5.0,97.99999999973164
148.0,10.994507411512984,50.97665910067472,1521.4556268063625,0,-5.0,97.99999999861188
149.0,10.994995461339755,50.97661591223523,1526.3429402291804,0,-5.0,98.0000000004436
150.0,10.995483510712603,50.97657272379574,1531.169974320336,0,-5.0,97.99999999994168
151.0,10.995971559631556,50.976529535356256,1535.9367438495751,0,-5.0,98.00000000018349
152.0,10.996459608096586,50.976486346916765,1540.6432634020703,0,-5.0,98.0000000008809
153.0,10.996947656107693,50.976443158477274,1545.2895473784663,0,-5.0,98.00000000101494
154.0,10.997435703664877,50.97639997003779,1549.8756099949264,0,-5.0,98.00000000005548
155.0,10.997923750768166,50.97635678159831,1554.4014652831763,0,-5.0,97.99999999973693
156.0,10.998411797417532,50.97631359315883,1558.8671270905484,0,-5.0,98.00000000053268
157.0,10.998899843613003,50.97627040471936,1563.2726090800256,0,-5.0,97.99999999739418
158.0,10.999387889354551,50.97622721627988,1567.6179247302846,0,-5.0,98.00000000052665
159.0,10.999875934642205,50.97618402784041,1571.9030873357372,0,-5.0,98.00000000033214
160.0,11.000363979475935,50.976140839400934,1576.1281100065735,0,-5.0,98.00000000001165
161.0,11.00085202385577,50.97609765096147,1580.2930056688022,0,-5.0,97.99999999927189
162.0,11.001340067781712,50.976054462522,1584.3977870642914,0,-5.0,97.9999999997134
163.0,11.001828111253758,50.97601127408253,1588.4424667508092,0,-5.0,98.00000000072885
164.0,11.002316154271881,50.97596808564306,1592.427057102063,0,-5.0,97.99999999931788
165.0,11.00280419683611,50.975924897203605,1596.3515703077376,0,-5.0,97.99999999865071
166.0,11.003292238946443,50.975881708764135,1600.2160183735352,0,-5.0,98.00000000030207
167.0,11.003780280602882,50.97583852032467,1604.0204131212117,0,-5.0,97.99999999969697
168.0,11.004268321805398,50.9757953318852,1607.7647661886144,0,-5.0,98.00000000182206
169.0,11.00475636255402,50.97575214344574,1611.4490890297188,0,-5.0,98.00000000180904
170.0,11.005244402848746,50.975708955006276,1615.0733929146647,0,-5.0,98.00000000006958
171.0,11.005732442689606,50.97566576656682,1618.637688929791,0,-5.0,98.00000000079274
172.0,11.006220482076571,50.97562257812736,1622.1419879776715,0,-5.0,98.00000000080843
173.0,11.006708521009614,50.9755793896879,1625.5863007771484,0,-5.0,98.00000000072384
174.0,11.00719655948879,50.97553620124846,1628.9706378633666,0,-5.0,97.9999999980123
175.0,11.007684597514071,50.97549301280902,1632.2950095878064,0,-5.0,97.99999999927121
176.0,11.008172635085486,50.97544982436957,1635.5594261183164,0,-5.0,97.99999999950359
177.0,11.008660672203007,50.97540663593012,1638.7638974391455,0,-5.0,98.00000000019156
178.0,11.009148708866633,50.975363447490665,1641.9084333509738,0,-5.0,98.00000000089767
179.0,11.009636745076364,50.97532025905123,1644.9930434709443,0,-5.0,97.99999999876565
180.0,11.0101247808322,50.97527707061179,1648.017737232692,0,-5.0,98.00000000006389
181.0,11.01061281613417,50.975233882172354,1650.982523886375,0,-5.0,97.99999999924967
182.0,11.011100850982274,50.97519069373291,1653.8874124987026,0,-5.0,97.99999999956515
183.0,11.011588885376483,50.97514750529348,1656.7324119529637,0,-5.0,97.99999999922466
184.0,11.012076919316797,50.97510431685404,1659.5175309490555,0,-5.0,98.00000000003962
185.0,11.012564952803245,50.97506112841461,1662.2427780035105,0,-5.0,97.99999999927229
186.0,11.013052985835799,50.975017939975174,1664.908161449523,0,-5.0,98.00000000073078
187.0,11.013541018414514,50.97497475153573,1667.513689436976,0,-5.0,98.0000000018627
188.0,11.014029050539335,50.9749315630963,1670.059369932466,0,-5.0,98.00000000158718
189.0,11.01451708221029,50.97488837465688,1672.545210719329,0,-5.0,97.9999999985663
190.0,11.01500511342735,50.97484518621745,1674.9712193976638,0,-5.0,98.00000000007168
191.0,11.015493144190543,50.97480199777803,1677.3374033843575,0,-5.0,97.99999999999471
192.0,11.01598117449987,50.97475880933861,1679.643769913107,0,-5.0,97.99999999877286
193.0,11.016469204355332,50.97471562089918,1681.8903260344434,0,-5.0,98.00000000103262
194.0,11.016957233756926,50.97467243245976,1684.0770786157532,0,-5.0,98.00000000042854
195.0,11.017445262704655,50.97462924402034,1686.2040343412998,0,-5.0,98.00000000042417
196.0,11.017933291198517,50.97458605558093,1688.2711997122456,0,-5.0,97.9999999992749
197.0,11.018421319238513,50.974542867141516,1690.278581046671,0,-5.0,98.00000000102568
198.0,11.018909346824643,50.9744996787021,1692.2261844795958,0,-5.0,97.99999999991269
199.0,11.019397373956906,50.97445649026268,1694.114015962997,0,-5.0,98.00000000114397
200.0,11.019885400635332,50.97441330182327,1695.9420812658286,0,-5.0,98.00000000018565
201.0,11.02037342685989,50.974370113383856,1697.7103859740394,0,-5.0,98.00000000142745
202.0,11.020861452630584,50.97432692494444,1699.4189354905905,0,-5.0,97.99999999922397
203.0,11.02134947794741,50.97428373650503,1701.0677350354722,0,-5.0,98.00000000227243
204.0,11.0218375028104,50.97424054806562,1702.656789645721,0,-5.0,97.99999999961636
205.0,11.022325527219522,50.97419735962623,1704.1861041754344,0,-5.0,97.99999999921192
206.0,11.022813551174778,50.97415417118683,1705.6556832957872,0,-5.0,97.99999999940712
207.0,11.023301574676168,50.97411098274743,1707.0655314950457,0,-5.0,98.00000000020202
208.0,11.02378959772372,50.97406779430804,1708.4156530785817,0,-5.0,97.99999999878162
209.0,11.024277620317434,50.97402460586865,1709.7060521688868,0,-5.0,97.99999999859386
210.0,11.02476564245731,50.97398141742925,1710.936732705584,0,-5.0,98.00000000069895
211.0,11.025253664143321,50.97393822898985,1712.1076984454417,0,-5.0,98.00000000040336
212.0,11.025741685375465,50.97389504055046,1713.2189529623838,0,-5.0,98.00000000068172
213.0,11.02622970615377,50.97385185211107,1714.2704996475027,0,-5.0,97.999999999985
214.0,11.026717726478239,50.973808663671676,1715.2623417090688,0,-5.0,98.0000000015811
215.0,11.02720574634884,50.973765475232284,1716.1944821725408,0,-5.0,98.0000000007766
216.0,11.027693765765633,50.97372228679289,1717.0669238805754,0,-5.0,98.00000000022692
217.0,11.02818178472856,50.9736790983535,1717.879669493036,0,-5.0,98.00000000175913
218.0,11.028669803237676,50.97363590991412,1718.6327214870016,0,-5.0,97.99999999836382
219.0,11.029157821292927,50.973592721474745,1719.3260821567737,0,-5.0,97.99999999876923
220.0,11.02964583889434,50.97354953303536,1719.9597536138847,0,-5.0,98.00000000166301
221.0,11.030133856041914,50.97350634459599,1720.5337377871033,0,-5.0,97.99999999934107
222.0,11.03062187273568,50.97346315615662,1721.048036422441,0,-5.0,97.99999999773723
223.0,11.031109888975578,50.97341996771725,1721.5026510831588,0,-5.0,97.99999999882249
224.0,11.031597904761668,50.973376779277885,1721.8975831497696,0,-5.0,97.99999999899956
225.0,11.03208592009392,50.973333590838514,1722.2328338200448,0,-5.0,97.99999999963217
226.0,11.032573934972334,50.97329040239914,1722.5084041090172,0,-5.0,98.00000000147179
227.0,11.03306194939691,50.97324721395977,1722.724294848984,0,-5.0,97.9999999986772
228.0,11.033549963367648,50.9732040255204,1722.8805066895102,0,-5.0,98.00000000171616
229.0,11.034037976884548,50.97316083708103,1722.9770400974292,0,-5.0,98.00000000128398
230.0,11.03452598994761,50.97311764864167,1723.0138953568458,0,-5.0,98.00000000028848
231.0,11.035014002556863,50.973074460202305,1722.9910725691363,0,-5.0,97.99999999998528
232.0,11.035832410777061,50.97300203094219,1722.9910725691363,0,0.0,97.99999999909733
233.0,11.036650817720925,50.97292960168208,1722.9910725691363,0,0.0,97.99999999882687
234.0,11.037469223388428,50.97285717242196,1722.9910725691363,0,0.0,98.00000000031673
235.0,11.038287627779596,50.97278474316186,1722.9910725691363,0,0.0,97.99999999947016
236.0,11.039106030894402,50.972712313901766,1722.9910725691363,0,0.0,98.00000000033788
237.0,11.039924432732874,50.97263988464169,1722.9910725691363,0,0.0,97.99999999891514
238.0,11.040742833295013,50.9725674553816,1722.9910725691363,0,0.0,98.00000000031764
239.0,11.041561232580818,50.97249502612153,1722.9910725691363,0,0.0,97.9999999993284
240.0,11.04237963059029,50.97242259686147,1722.9910725691363,0,0.0,97.99999999909909
241.0,11.043198027323456,50.97235016760142,1722.9910725691363,0,0.0,98.00000000003166
242.0,11.044016422780317,50.972277738341354,1722.9910725691363,0,0.0,98.00000000099993
243.0,11.044834816960872,50.97220530908131,1722.9910725691363,0,0.0,97.99999999995401
244.0,11.045653209865122,50.972132879821274,1722.9910725691363,0,0.0,97.99999999999937
245.0,11.046471601493067,50.972060450561244,1722.9910725691363,0,0.0,98.00000000044258
246.0,11.047289991844735,50.971988021301236,1722.9910725691363,0,0.0,97.9999999978711
247.0,11.048108380920127,50.971915592041235,1722.9910725691363,0,0.0,97.99999999919578
248.0,11.048926768719241,50.97184316278122,1722.9910725691363,0,0.0,98.00000000019406
249.0,11.049745155242078,50.971770733521225,1722.9910725691363,0,0.0,97.99999999987165
250.0,11.050563540488639,50.97169830426123,1722.9910725691363,0,0.0,97.99999999960022
251.0,11.051381924458923,50.971625875001244,1722.9910725691363,0,0.0,98.00000000042013
252.0,11.052200307152958,50.97155344574126,1722.9910725691363,0,0.0,98.00000000030604
253.0,11.053018688570745,50.97148101648129,1722.9910725691363,0,0.0,97.99999999958004
254.0,11.053837068712284,50.97140858722134,1722.9910725691363,0,0.0,97.9999999981963
255.0,11.054655447577574,50.97133615796139,1722.9910725691363,0,0.0,97.99999999929094
256.0,11.055473825166644,50.97126372870145,1722.9910725691363,0,0.0,97.99999999841117
257.0,11.056292201479465,50.97119129944152,1722.9910725691363,0,0.0,97.99999999927638
258.0,11.057110576516067,50.97111887018159,1722.9910725691363,0,0.0,97.9999999988608
259.0,11.05792895027642,50.971046440921675,1722.9910725691363,0,0.0,97.99999999946601
260.0,11.058747322760581,50.97097401166176,1722.9910725691363,0,0.0,97.99999999956981
261.0,11.059565693968523,50.97090158240185,1722.9910725691363,0,0.0,97.9999999996694
262.0,11.060384063900273,50.97082915314194,1722.9910725691363,0,0.0,97.99999999985994
263.0,11.061202432555802,50.970756723882054,1722.9910725691363,0,0.0,97.99999999936807
264.0,11.06202079993514,50.97068429462217,1722.9910725691363,0,0.0,97.99999999967599
265.0,11.062839166038287,50.97061186536229,1722.9910725691363,0,0.0,98.0000000000349
266.0,11.063657530865243,50.97053943610242,1722.9910725691363,0,0.0,97.99999999905782
267.0,11.064475894416034,50.970467006842554,1722.9910725691363,0,0.0,97.99999999960471
268.0,11.065294256690663,50.97039457758269,1722.9910725691363,0,0.0,98.0000000001873
269.0,11.0661126176891,50.97032214832283,1722.9910725691363,0,0.0,98.00000000076568
270.0,11.066930977411374,50.970249719062984,1722.9910725691363,0,0.0,97.99999999971647
271.0,11.067749335857485,50.97017728980316,1722.9910725691363,0,0.0,97.99999999837155
272.0,11.068567693027461,50.97010486054334,1722.9910725691363,0,0.0,97.9999999999223
273.0,11.069386048921302,50.970032431283514,1722.9910725691363,0,0.0,97.99999999982094
274.0,11.07020440353898,50.96996000202371,1722.9910725691363,0,0.0,97.9999999986137
275.0,11.071022756880524,50.96988757276391,1722.9910725691363,3.0,0.0,97.99999999998613
276.0,11.071839300981821,50.96980745961851,1722.9910725691363,6.0,0.0,98.85522771002513
277.0,11.072653853791081,50.9697196804371,1722.9910725691363,8.737842147111092,0.0,99.7104554208189
278.0,11.073466233702135,50.96962425477727,1722.9910725691363,8.737842147111092,0.0,100.56568313309941
279.0,11.074276259595138,50.96952120390021,1722.9910725691363,8.737842147111092,0.0,101.42091084292167
280.0,11.07508375087707,50.969410550765936,1722.9910725691363,8.737842147111092,0.0,102.27613855396407
281.0,11.075888527522181,50.96929232002826,1722.9910725691363,8.737842147111092,0.0,103.13136626449244
282.0,11.076690410112178,50.96916653802924,1722.9910725691363,8.737842147111092,0.0,103.98659397593508
283.0,11.077489219876469,50.96903323279331,1722.9910725691363,8.737842147111092,0.0,104.84182168680024
284.0,11.078284778732069,50.96889243402106,1722.9910725691363,8.737842147111092,0.0,105.6970493982289
285.0,11.079076909323504,50.96874417308263,1722.9910725691363,8.737842147111092,0.0,106.5522771065381
286.0,11.079865435062459,50.968588483010635,1722.9910725691363,8.737842147111092,0.0,107.40750481852871
287.0,11.080650180167225,50.96842539849291,1722.9910725691363,8.737842147111092,0.0,108.26273252943986
288.0,11.081430969702097,50.968254955864744,1722.9910725691363,8.737842147111092,0.0,109.11796024007276
289.0,11.08220762961642,50.96807719310074,1722.9910725691363,8.737842147111092,0.0,109.97318795082504
290.0,11.082979986783585,50.967892149806396,1722.9910725691363,8.737842147111092,0.0,110.82841566359951
291.0,11.083747869039712,50.967699867209326,1722.9910725691363,8.737842147111092,0.0,111.68364337236494
292.0,11.084511105222077,50.96750038814996,1722.9910725691363,8.737842147111092,0.0,112.53887108405746
293.0,11.085269525207508,50.967293757072085,1722.9910725691363,8.737842147111092,0.0,113.39409879600214
294.0,11.086022959950327,50.96708002001293,1722.9910725691363,8.737842147111092,0.0,114.24932650599158
295.0,11.086771241520154,50.96685922459289,1722.9910725691363,8.737842147111092,0.0,115.10455421565382
296.0,11.087514203139477,50.966631420004894,1722.9910725691363,8.737842147111092,0.0,115.95978192784526
297.0,11.088251679220832,50.96639665700353,1722.9910725691363,8.737842147111092,0.0,116.81500963761044
298.0,11.088983505403974,50.966154987893624,1722.9910725691363,8.737842147111092,0.0,117.67023734866768
299.0,11.0897095185924,50.96590646651867,1722.9910725691363,8.737842147111092,0.0,118.5254650595059
300.0,11.090429556989989,50.9656511482488,1722.9910725691363,8.737842147111092,0.0,119.38069277058162
301.0,11.091143460137033,50.96538908996845,1722.9910725691363,8.737842147111092,0.0,120.23592048162584
302.0,11.091851068946085,50.96512035006368,1722.9910725691363,8.737842147111092,0.0,121.09114819307467
303.0,11.092552225737506,50.964844988409205,1722.9910725691363,8.737842147111092,0.0,121.94637590281764
304.0,11.093246774274718,50.96456306635499,1722.9910725691363,8.737842147111092,0.0,122.80160361472133
305.0,11.093934559799067,50.96427464671261,1722.9910725691363,8.737842147111092,0.0,123.65683132531922
306.0,11.094615429064305,50.963979793741295,1722.9910725691363,8.737842147111092,0.0,124.51205903626419
307.0,11.095289230370952,50.96367857313357,1722.9910725691363,8.737842147111092,0.0,125.36728674538386
308.0,11.095955813600028,50.96337105200059,1722.9910725691363,8.737842147111092,0.0,126.2225144573955
309.0,11.096615030246653,50.96305729885722,1722.9910725691363,8.737842147111092,0.0,127.07774216876294
310.0,11.097266733453097,50.96273738360684,1722.9910725691363,8.737842147111092,0.0,127.93296987904853
311.0,11.09791077804158,50.96241137752566,1722.9910725691363,8.737842147111092,0.0,128.7881975916261
312.0,11.09854702054676,50.962079353246864,1722.9910725691363,8.737842147111092,0.0,129.64342530093603
313.0,11.099175319247593,50.96174138474448,1722.9910725691363,8.737842147111092,0.0,130.49865301244904
314.0,11.099795534198961,50.96139754731686,1722.9910725691363,8.737842147111092,0.0,131.3538807222531
315.0,11.100407527263002,50.96104791756989,1722.9910725691363,8.737842147111092,0.0,132.20910843251954
316.0,11.101011162139741,50.96069257339995,1722.9910725691363,8.737842147111092,0.0,133.06433614468756
317.0,11.10160630439762,50.960331593976555,1722.9910725691363,8.737842147111092,0.0,133.91956385512424
318.0,11.102192821503309,50.95996505972471,1722.9910725691363,8.737842147111092,0.0,134.77479156719812
319.0,11.102770582851434,50.95959305230699,1722.9910725691363,8.737842147111092,0.0,135.63001927655114
320.0,11.10333945979346,50.959215654605366,1722.9910725691363,8.737842147111092,0.0,136.48524698829203
321.0,11.103899325666532,50.95883295070267,1722.9910725691363,8.737842147111092,0.0,137.34047469926202
322.0,11.104450055821559,50.95844502586397,1722.9910725691363,8.737842147111092,0.0,138.19570240957893
323.0,11.104991527651038,50.95805196651749,1722.9910725691363,8.737842147111092,0.0,139.0509301211905
324.0,11.105523620616282,50.95765386023538,1722.9910725691363,8.737842147111092,0.0,139.9061578328513
325.0,11.106046216274365,50.957250795714224,1722.9910725691363,8.737842147111092,0.0,140.76138554217215
326.0,11.106559198304353,50.95684286275523,1722.9910725691363,8.737842147111092,0.0,141.6166132533275
327.0,11.107062452533228,50.95643015224427,1722.9910725691363,8.737842147111092,0.0,142.4718409641739
328.0,11.107555866961292,50.95601275613164,1722.9910725691363,8.737842147111092,0.0,143.3270686744827
329.0,11.108039331787069,50.955590767411486,1722.9910725691363,8.737842147111092,0.0,144.18229638607198
330.0,11.108512739431717,50.955164280101194,1722.9910725691363,8.737842147111092,0.0,145.0375240972768
331.0,11.108975984562932,50.954733389220394,1722.9910725691363,8.737842147111092,0.0,145.89275180669694
332.0,11.109428964118308,50.95429819076978,1722.9910725691363,8.737842147111092,0.0,146.74797951802327
333.0,11.109871577328306,50.95385878170974,1722.9910725691363,8.737842147111092,0.0,147.6032072282606
334.0,11.11030372573856,50.95341525993875,1722.9910725691363,8.737842147111092,0.0,148.45843493938543
335.0,11.110725313231768,50.95296772427156,1722.9910725691363,8.737842147111092,0.0,149.3136626520054
336.0,11.111136246049057,50.95251627441718,1722.9910725691363,8.737842147111092,0.0,150.16889036137934
337.0,11.11153643281071,50.95206101095667,1722.9910725691363,8.737842147111092,0.0,151.02411807197143
338.0,11.111925784536453,50.95160203532069,1722.9910725691363,8.737842147111092,0.0,151.87934578462
339.0,11.112304214665215,50.951139449767,1722.9910725691363,8.737842147111092,0.0,152.7345734953699
340.0,11.112671639074279,50.95067335735759,1722.9910725691363,8.737842147111092,0.0,153.58980120478896
341.0,11.113027976097896,50.95020386193574,1722.9910725691363,8.737842147111092,0.0,154.44502891518778
342.0,11.113373146545399,50.94973106810289,1722.9910725691363,8.737842147111092,0.0,155.3002566271506
343.0,11.113707073718729,50.94925508119533,1722.9910725691363,8.737842147111092,0.0,156.1554843390636
344.0,11.114029683429408,50.94877600726074,1722.9910725691363,8.737842147111092,0.0,157.01071204967434
345.0,11.11434090401491,50.948293953034586,1722.9910725691363,8.737842147111092,0.0,157.86593976038296
346.0,11.114640666354546,50.94780902591629,1722.9910725691363,8.737842147111092,0.0,158.72116746971858
347.0,11.114928903884646,50.947321333945304,1722.9910725691363,8.737842147111092,0.0,159.57639518115718
348.0,11.115205552613332,50.94683098577713,1722.9910725691363,8.737842147111092,0.0,160.43162289205645
349.0,11.11547055113462,50.946338090658976,1722.9910725691363,8.737842147111092,0.0,161.2868506028061
350.0,11.11572384064192,50.94584275840553,1722.9910725691363,8.737842147111092,0.0,162.14207831470912
351.0,11.115965364941076,50.94534509937443,1722.9910725691363,8.737842147111092,0.0,162.99730602415457
352.0,11.116195070462595,50.944845224441686,1722.9910725691363,8.737842147111092,0.0,163.8525337355362
353.0,11.116412906273553,50.94434324497703,1722.9910725691363,8.737842147111092,0.0,164.70776144629872
354.0,11.116618824088732,50.943839272819034,1722.9910725691363,8.737842147111092,0.0,165.56298915716036
355.0,11.11681277828123,50.94333342025022,1722.9910725691363,8.737842147111092,0.0,166.41821686793378
356.0,11.116994725892425,50.942825799972056,1722.9910725691363,8.737842147111092,0.0,167.2734445806708
357.0,11.117164626641511,50.942316525079846,1722.9910725691363,8.737842147111092,0.0,168.1286722892661
358.0,11.117322442934125,50.94180570903752,1722.9910725691363,8.737842147111092,0.0,168.9838999993201
359.0,11.117468139870624,50.94129346565234,1722.9910725691363,8.737842147111092,0.0,169.83912771209623
360.0,11.117601685253788,50.9407799090496,1722.9910725691363,8.737842147111092,0.0,170.69435542184613
361.0,11.117723049595668,50.94026515364715,1722.9910725691363,8.737842147111092,0.0,171.54958313301324
362.0,11.117832206124064,50.93974931412993,1722.9910725691363,8.737842147111092,0.0,172.40481084467274
363.0,11.117929130788326,50.93923250542437,1722.9910725691363,8.737842147111092,0.0,173.26003855476392
364.0,11.118013802264471,50.93871484267289,1722.9910725691363,8.737842147111092,0.0,174.11526626562625
365.0,11.118086201959812,50.938196441208135,1722.9910725691363,8.737842147111092,0.0,174.9704939758501
366.0,11.118146314016883,50.937677416527336,1722.9910725691363,8.737842147111092,0.0,175.82572168592912
367.0,11.118194125316762,50.93715788426658,1722.9910725691363,8.737842147111092,0.0,176.68094939888988
368.0,11.118229625481945,50.93663796017504,1722.9910725691363,8.737842147111092,0.0,177.53617710822334
369.0,11.118252806878303,50.93611776008918,1722.9910725691363,8.737842147111092,0.0,178.39140481936556
370.0,11.118263664616705,50.93559739990695,1722.9910725691363,8.737842147111092,0.0,179.24663253029007
371.0,11.1182621965539,50.93507699556197,1722.9910725691363,8.737842147111092,0.0,180.10186024102407
372.0,11.118248403292796,50.93455666299771,1722.9910725691363,8.737842147111092,0.0,180.9570879520863
373.0,11.118222288182125,50.934036518141625,1722.9910725691363,8.737842147111092,0.0,181.8123156650633
374.0,11.118183857315614,50.93351667687935,1722.9910725691363,8.737842147111092,0.0,182.66754337497906
375.0,11.118133119530313,50.932997255028916,1722.9910725691363,8.737842147111092,0.0,183.52277108568717
376.0,11.118070086404515,50.93247836831489,1722.9910725691363,8.737842147111092,0.0,184.37799879589193
377.0,11.117994772254974,50.9319601323426,1722.9910725691363,8.737842147111092,0.0,185.23322650588645
378.0,11.117907194133522,50.93144266257244,1722.9910725691363,8.737842147111092,0.0,186.08845421647698
379.0,11.11780737182309,50.930926074294064,1722.9910725691363,8.737842147111092,0.0,186.94368192916167
380.0,11.11769532783319,50.930410482600756,1722.9910725691363,8.737842147111092,0.0,187.79890963935756
381.0,11.117571087394623,50.92989600236376,1722.9910725691363,8.737842147111092,0.0,188.65413735022324
382.0,11.117434678453748,50.92938274820672,1722.9910725691363,8.737842147111092,0.0,189.50936506022816
383.0,11.11728613166602,50.92887083448008,1722.9910725691363,8.737842147111092,0.0,190.36459277145318
384.0,11.117125480389035,50.928360375235684,1722.9910725691363,8.737842147111092,0.0,191.21982048341292
385.0,11.116952760674934,50.927851484201334,1722.9910725691363,8.737842147111092,0.0,192.07504819444506
386.0,11.116768011262195,50.92734427475543,1722.9910725691363,8.737842147111092,0.0,192.93027590361092
387.0,11.116571273566763,50.926838859901736,1722.9910725691363,8.737842147111092,0.0,193.78550361464983
388.0,11.116362591672754,50.926335352244216,1722.9910725691363,8.737842147111092,0.0,194.6407313253924
389.0,11.116142012322427,50.925833863961905,1722.9910725691363,8.737842147111092,0.0,195.49595903546094
390.0,11.11590958490558,50.92533450678397,1722.9910725691363,8.737842147111092,0.0,196.35118674795692
391.0,11.115665361448464,50.92483739196475,1722.9910725691363,8.737842147111092,0.0,197.20641445958665
392.0,11.11540939660199,50.92434263025905,1722.9910725691363,8.737842147111092,0.0,198.061642171078
393.0,11.115141747629423,50.92385033189738,1722.9910725691363,8.737842147111092,0.0,198.91686988115856
394.0,11.114862474393448,50.92336060656147,1722.9910725691363,8.737842147111092,0.0,199.7720975915014
395.0,11.1145716393427,50.922873563359815,1722.9910725691363,8.737842147111092,0.0,200.6273253024822
396.0,11.114269307497722,50.92238931080333,1722.9910725691363,8.737842147111092,0.0,201.48255301234823
397.0,11.113955546436301,50.921907956781205,1722.9910725691363,8.737842147111092,0.0,202.33778072404291
398.0,11.113630426278348,50.921429608536876,1722.9910725691363,8.737842147111092,0.0,203.19300843492783
399.0,11.113294019670093,50.92095437264411,1722.9910725691363,8.737842147111092,0.0,204.04823614622273
400.0,11.1129464017678,50.92048235498327,1722.9910725691363,8.737842147111092,0.0,204.9034638565108
401.0,11.11258765022086,50.92001366071774,1722.9910725691363,8.737842147111092,0.0,205.75869156824803
402.0,11.112217845154447,50.91954839427048,1722.9910725691363,8.737842147111092,0.0,206.61391927857437
403.0,11.111837069151505,50.91908665930074,1722.9910725691363,8.737842147111092,0.0,207.4691469878119
404.0,11.111445407234186,50.91862855868105,1722.9910725691363,8.737842147111092,0.0,208.3243747002823
405.0,11.111042946844918,50.91817419447416,1722.9910725691363,8.737842147111092,0.0,209.17960241094434
406.0,11.110629777826745,50.91772366791044,1722.9910725691363,8.737842147111092,0.0,210.03483012196017
407.0,11.110205992403252,50.91727707936523,1722.9910725691363,8.737842147111092,0.0,210.89005783188645
408.0,11.10977168515791,50.91683452833655,1722.9910725691363,8.737842147111092,0.0,211.7452855425384
409.0,11.109326953012896,50.91639611342286,1722.9910725691363,8.737842147111092,0.0,212.60051325288336
410.0,11.108871895207415,50.91596193230118,1722.9910725691363,8.737842147111092,0.0,213.45574096684828
411.0,11.108406613275662,50.91553208170522,1722.9910725691363,8.737842147111092,0.0,214.31096867566828
412.0,11.107931211023896,50.91510665740394,1722.9910725691363,8.737842147111092,0.0,215.1661963876859
413.0,11.107445794507413,50.91468575418011,1722.9910725691363,8.737842147111092,0.0,216.02142409704777
414.0,11.106950472006787,50.91426946580928,1722.9910725691363,8.737842147111092,0.0,216.87665180771165
415.0,11.10644535400371,50.91385788503885,1722.9910725691363,8.737842147111092,0.0,217.73187951919232
416.0,11.105930553156298,50.913451103567375,1722.9910725691363,8.737842147111092,0.0,218.58710722996273
417.0,11.105406184274045,50.913049212024205,1722.9910725691363,8.737842147111092,0.0,219.4423349409171
418.0,11.104872364292078,50.91265229994924,1722.9910725691363,8.737842147111092,0.0,220.2975626518221
419.0,11.10432921224512,50.912260455772966,1722.9910725691363,8.737842147111092,0.0,221.15279036305853
420.0,11.103776849241001,50.91187376679684,1722.9910725691363,8.737842147111092,0.0,222.0080180731173
421.0,11.103215398433548,50.91149231917374,1722.9910725691363,8.737842147111092,0.0,222.8632457839497
422.0,11.10264498499518,50.91111619788882,1722.9910725691363,8.737842147111092,0.0,223.7184734946624
423.0,11.102065736089031,50.910745486740595,1722.9910725691363,8.737842147111092,0.0,224.57370120671516
424.0,11.101477780840582,50.91038026832219,1722.9910725691363,8.737842147111092,0.0,225.4289289166637
425.0,11.100881250308873,50.91002062400305,1722.9910725691363,8.737842147111092,0.0,226.28415662864427
426.0,11.100276277457397,50.909666633910724,1722.9910725691363,8.737842147111092,0.0,227.1393843387798
427.0,11.09966299712437,50.909318376913056,1722.9910725691363,8.737842147111092,0.0,227.99461205043912
428.0,11.099041545992776,50.908975930600576,1722.9910725691363,8.737842147111092,0.0,228.84983975933227
429.0,11.098412062559873,50.90863937126925,1722.9910725691363,8.737842147111092,0.0,229.70506747112813
430.0,11.097774687106437,50.90830877390349,1722.9910725691363,8.737842147111092,0.0,230.56029518392216
431.0,11.097129561665554,50.9079842121594,1722.9910725691363,8.737842147111092,0.0,231.41552289226806
432.0,11.096476829990905,50.9076657583484,1722.9910725691363,8.737842147111092,0.0,232.2707506049959
433.0,11.095816637524848,50.907353483421105,1722.9910725691363,8.737842147111092,0.0,233.12597831530667
434.0,11.0951491313661,50.90704745695152,1722.9910725691363,8.737842147111092,0.0,233.9812060261629
435.0,11.094474460236938,50.906747747121514,1722.9910725691363,8.737842147111092,0.0,234.83643373503654
436.0,11.093792774450122,50.90645442070569,1722.9910725691363,8.737842147111092,0.0,235.6916614474578
437.0,11.093104225875578,50.90616754305647,1722.9910725691363,8.737842147111092,0.0,236.54688915778988
438.0,11.092408967906493,50.9058871780895,1722.9910725691363,8.737842147111092,0.0,237.40211686943908
439.0,11.091707155425354,50.90561338826947,1722.9910725691363,8.737842147111092,0.0,238.25734457909297
440.0,11.090998944769353,50.90534623459616,1722.9910725691363,8.737842147111092,0.0,239.11257229082037
441.0,11.090284493695776,50.905085776590845,1722.9910725691363,8.737842147111092,0.0,239.9678000007795
442.0,11.089563961346869,50.904832072283085,1722.9910725691363,8.737842147111092,0.0,240.8230277129578
443.0,11.088837508214539,50.90458517819773,1722.9910725691363,8.737842147111092,0.0,241.67825542311357
444.0,11.088105296104658,50.904345149342355,1722.9910725691363,6.0,0.0,242.53348313431042
445.0,11.087367488101108,50.90411203919502,1722.9910725691363,3.0,0.0,243.3887108439003
446.0,11.08663095039536,50.903877341579495,1722.9910725691363,0,0.0,243.19305573849482
447.0,11.085894420115604,50.903642639330094,1722.9910725691363,0,0.0,243.19248412021454
448.0,11.085157897261857,50.903407932446896,1722.9910725691363,0,0.0,243.19191250683883
449.0,11.08442138183412,50.903173220929986,1722.9910725691363,0,0.0,243.19134090172827
450.0,11.08368487383241,50.902938504779456,1722.9910725691363,0,0.0,243.19076930417174
451.0,11.082948373256738,50.9027037839954,1722.9910725691363,0,0.0,243.19019771676884
452.0,11.082211880107105,50.902469058577886,1722.9910725691363,0,0.0,243.1896261348177
453.0,11.081475394383522,50.90223432852701,1722.9910725691363,0,0.0,243.18905456104503
454.0,11.080738916086007,50.90199959384286,1722.9910725691363,0,0.0,243.1884829948754
455.0,11.080002445214564,50.90176485452551,1722.9910725691363,0,0.0,243.1879114361953
456.0,11.0792659817692,50.90153011057505,1722.9910725691363,0,0.0,243.18733988490493
457.0,11.07852952574993,50.90129536199158,1722.9910725691363,0,0.0,243.18676834381682
458.0,11.07779307715676,50.90106060877516,1722.9910725691363,0,0.0,243.18619680663053
459.0,11.077056635989697,50.9008258509259,1722.9910725691363,0,0.0,243.18562527890782
460.0,11.076320202248757,50.90059108844387,1722.9910725691363,0,0.0,243.1850537595751
461.0,11.075583775933945,50.900356321329156,1722.9910725691363,0,0.0,243.18448224590554
462.0,11.074847357045273,50.90012154958185,1722.9910725691363,0,0.0,243.18391074135025
463.0,11.07411094558275,50.899886773202034,1722.9910725691363,0,0.0,243.18333924459557
464.0,11.073374541546384,50.89965199218979,1722.9910725691363,0,0.0,243.18276775465392
465.0,11.072638144936183,50.899417206545216,1722.9910725691363,0,0.0,243.18219627303787
466.0,11.07190175575216,50.89918241626838,1722.9910725691363,0,0.0,243.1816247990724
467.0,11.07116537399432,50.89894762135938,1722.9910725691363,0,0.0,243.18105333191946
468.0,11.070428999662681,50.89871282181831,1722.9910725691363,0,0.0,243.18048187387961
469.0,11.069692632757246,50.898478017645225,1722.9910725691363,0,0.0,243.17991042181404
470.0,11.068956273278024,50.89824320884024,1722.9910725691363,0,0.0,243.1793389795858
471.0,11.068219921225026,50.89800839540343,1722.9910725691363,0,0.0,243.17876754328165
472.0,11.06748357659826,50.897773577334874,1722.9910725691363,0,0.0,243.17819611551468
473.0,11.066747239397737,50.89753875463466,1722.9910725691363,0,0.0,243.17762469335892
474.0,11.066010909623467,50.897303927302886,1722.9910725691363,0,0.0,243.17705328094013
475.0,11.065274587275457,50.89706909533963,1722.9910725691363,0,0.0,243.17648187730697
476.0,11.064538272353715,50.89683425874497,1722.9910725691363,0,0.0,243.17591047824743
477.0,11.06380196485826,50.896599417519,1722.9910725691363,0,0.0,243.17533908856183
478.0,11.06306566478909,50.89636457166179,1722.9910725691363,0,0.0,243.17476770562348
479.0,11.062329372146218,50.896129721173466,1722.9910725691363,0,0.0,243.17419633335848
480.0,11.061593086929658,50.89589486605407,1722.9910725691363,0,0.0,243.1736249662415
481.0,11.06085680913941,50.89566000630371,1722.9910725691363,0,0.0,243.17305360639648
482.0,11.060120538775493,50.89542514192246,1722.9910725691363,0,0.0,243.17248225467455
483.0,11.059384275837912,50.895190272910405,1722.9910725691363,0,0.0,243.17191090981206
484.0,11.058648020326679,50.89495539926765,1722.9910725691363,0,0.0,243.17133957572156
485.0,11.057911772241797,50.89472052099425,1722.9910725691363,0,0.0,243.17076824474043
486.0,11.057175531583278,50.894485638090316,1722.9910725691363,0,0.0,243.17019692650547
487.0,11.056439298351133,50.89425075055592,1722.9910725691363,0,0.0,243.1696256114926
488.0,11.055703072545372,50.89401585839115,1722.9910725691363,0,0.0,243.1690543063135
489.0,11.054966854166002,50.89378096159611,1722.9910725691363,0,0.0,243.16848301022998
490.0,11.054230643213035,50.893546060170856,1722.9910725691363,0,0.0,243.16791171861792
491.0,11.053494439686476,50.89331115411549,1722.9910725691363,0,0.0,243.16734043610103
492.0,11.05275824358634,50.893076243430095,1722.9910725691363,0,0.0,243.16676916170525
493.0,11.05202205491263,50.89284132811475,1722.9910725691363,0,0.0,243.1661978933294
494.0,11.051285873665359,50.892606408169556,1722.9910725691363,0,0.0,243.16562663567373
495.0,11.050549699844535,50.892371483594566,1722.9910725691363,0,0.0,243.16505538081333
496.0,11.049813533450168,50.892136554389914,1722.9910725691363,0,0.0,243.16448413979722
497.0,11.049077374482268,50.891901620555636,1722.9910725691363,0,0.0,243.1639129006387
498.0,11.048341222940842,50.891666682091866,1722.9910725691363,0,0.0,243.16334167412413
499.0,11.0476050788259,50.89143173899865,1722.9910725691363,0,0.0,243.16277045191663
500.0,11.04686894213745,50.89119679127609,1722.9910725691363,0,0.0,243.16219923870284
501.0,11.046132812875506,50.89096183892427,1722.9910725691363,0,0.0,243.16162803277075
502.0,11.045396691040075,50.89072688194327,1722.9910725691363,0,0.0,243.16105683448248
503.0,11.04466057663116,50.89049192033318,1722.9910725691363,0,0.0,243.1604856432994
504.0,11.043924469648779,50.8902569540941,1722.9910725691363,0,0.0,243.15991446196017
505.0,11.043188370092937,50.890021983226085,1722.9910725691363,0,0.0,243.15934328601395
506.0,11.042452277963642,50.88978700772925,1722.9910725691363,0,0.0,243.15877211896057
507.0,11.041716193260905,50.889552027603656,1722.9910725691363,0,0.0,243.15820095840004
508.0,11.040980115984736,50.8893170428494,1722.9910725691363,0,0.0,243.15762980521964
509.0,11.040244046135143,50.88908205346658,1722.9910725691363,0,0.0,243.15705866311862
510.0,11.039507983712136,50.88884705945526,1722.9910725691363,0,0.0,243.15648752501036
511.0,11.038771928715718,50.88861206081553,1722.9910725691363,0,0.0,243.15591639604335
512.0,11.038035881145907,50.88837705754748,1722.9910725691363,0,0.0,243.15534527353162
513.0,11.037299841002708,50.888142049651194,1722.9910725691363,0,0.0,243.15477416047315
514.0,11.036563808286132,50.887907037126766,1722.9910725691363,0,0.0,243.15420305438158
515.0,11.035827782996185,50.887672019974275,1722.9910725691363,0,0.0,243.15363195555585
516.0,11.035091765132876,50.887436998193806,1722.9910725691363,0,0.0,243.15306086588362
517.0,11.03435575469622,50.88720197178544,1722.9910725691363,0,0.0,243.15248978130307
518.0,11.033619751686219,50.88696694074926,1722.9910725691363,0,0.0,243.1519187061749
519.0,11.032883756102885,50.88673190508537,1722.9910725691363,0,0.0,243.15134763868735
520.0,11.032147767946228,50.88649686479384,1722.9910725691363,0,0.0,243.15077657826527
521.0,11.031411787216255,50.886261819874754,1722.9910725691363,0,0.0,243.15020552558326
522.0,11.030675813912975,50.886026770328215,1722.9910725691363,0,0.0,243.14963448184082
523.0,11.029939848036397,50.88579171615428,1722.9910725691363,0,0.0,243.14906344365113
524.0,11.029203889586535,50.88555665735306,1722.9910725691363,0,0.0,243.1484924139885
525.0,11.02846793856339,50.88532159392462,1722.9910725691363,0,0.0,243.1479213921649
526.0,11.027731994966977,50.88508652586907,1722.9910725691363,0,0.0,243.14735037824317
527.0,11.026996058797302,50.88485145318648,1722.9910725691363,0,0.0,243.1467793718976
528.0,11.026260130054377,50.884616375876924,1722.9910725691363,0,0.0,243.14620837236657
529.0,11.025524208738206,50.88438129394052,1722.9910725691363,0,0.0,243.14563738202332
530.0,11.024788294848804,50.88414620737732,1722.9910725691363,0,0.0,243.14506639859403
531.0,11.024052388386176,50.88391111618743,1722.9910725691363,0,0.0,243.14449542175308
532.0,11.023316489350332,50.883676020370935,1722.9910725691363,0,0.0,243.14392445504956
533.0,11.02258059774128,50.88344091992789,1722.9910725691363,0,0.0,243.14335349233497
534.0,11.021844713559029,50.88320581485843,1722.9910725691363,0,0.0,243.14278254178157
535.0,11.02110883680359,50.88297070516261,1722.9910725691363,0,0.0,243.14221159590443
536.0,11.02037296747497,50.88273559084052,1722.9910725691363,0,0.0,243.14164065791425
537.0,11.019637105573176,50.88250047189225,1722.9910725691363,0,0.0,243.14106972948565
538.0,11.018901251098221,50.88226534831787,1722.9910725691363,0,0.0,243.14049880557013
539.0,11.018165404050112,50.882030220117485,1722.9910725691363,0,0.0,243.13992789194037
540.0,11.01742956442886,50.881795087291174,1722.9910725691363,0,0.0,243.1393569849602
541.0,11.016693732234472,50.881559949839016,1722.9910725691363,0,0.0,243.13878608482906
542.0,11.015957907466957,50.88132480776112,1722.9910725691363,0,0.0,243.1382151951957
543.0,11.015222090126324,50.88108966105754,1722.9910725691363,0,0.0,243.13764431017438
544.0,11.014486280212582,50.88085450972837,1722.9910725691363,0,0.0,243.13707343440086
545.0,11.013750477725736,50.8806193537737,1722.9910725691363,0,0.0,243.13650256547567
546.0,11.013014682665801,50.88038419319362,1722.9910725691363,0,0.0,243.13593170476088
547.0,11.012278895032784,50.88014902798822,1722.9910725691363,0,0.0,243.13536085209367
548.0,11.01154311482669,50.87991385815757,1722.9910725691363,0,0.0,243.13479000694895
549.0,11.010807342047533,50.87967868370176,1722.9910725691363,0,0.0,243.1342191677775
550.0,11.010071576695323,50.87944350462088,1722.9910725691363,0,0.0,243.13364833785266
551.0,11.009335818770062,50.87920832091502,1722.9910725691363,0,0.0,243.13307751679912
552.0,11.00860006827176,50.87897313258424,1722.9910725691363,0,0.0,243.13250669989395
553.0,11.007864325200432,50.87873793962865,1722.9910725691363,0,0.0,243.1319358927597
554.0,11.007128589556082,50.87850274204835,1722.9910725691363,0,0.0,243.1313650956958
555.0,11.00639286133872,50.87826753984338,1722.9910725691363,0,0.0,243.13079430158015
556.0,11.005657140548355,50.87803233301386,1722.9910725691363,0,0.0,243.13022351915902
557.0,11.004921427184993,50.87779712155987,1722.9910725691363,0,0.0,243.12965274185962
558.0,11.004185721248644,50.87756190548149,1722.9910725691363,0,0.0,243.12908197303074
559.0,11.00345002273932,50.877326684778815,1722.9910725691363,0,0.0,243.12851121219734
560.0,11.002714331657026,50.877091459451904,1722.9910725691363,0,0.0,243.1279404582595
561.0,11.001978648001776,50.876856229500866,1722.9910725691363,0,0.0,243.12736971216688
562.0,11.001242971773571,50.87662099492578,1722.9910725691363,0,0.0,243.1267989733817
563.0,11.000507302972427,50.87638575572674,1722.9910725691363,0,0.0,243.12622824431557
564.0,10.999771641598347,50.876150511903816,1722.9910725691363,0,0.0,243.12565752053257
565.0,10.999035987651343,50.87591526345712,1722.9910725691363,0,0.0,243.12508680688035
566.0,10.998300341131422,50.875680010386695,1722.9910725691363,0,0.0,243.12451609762385
567.0,10.997564702038597,50.87544475269267,1722.9910725691363,0,0.0,243.12394540032193
568.0,10.99682907037287,50.87520949037509,1722.9910725691363,0,0.0,243.12337470517897
569.0,10.996093446134253,50.87497422343408,1722.9910725691363,0,0.0,243.1228040228147
570.0,10.995357829322755,50.8747389518697,1722.9910725691363,0,0.0,243.12223334522037
571.0,10.994622219938384,50.87450367568205,1722.9910725691363,0,0.0,243.1216626769185
572.0,10.993886617981147,50.874268394871194,1722.9910725691363,0,0.0,243.12109201488545
573.0,10.993151023451057,50.87403310943724,1722.9910725691363,0,0.0,243.1205213606454
574.0,10.99241543634812,50.873797819380265,1722.9910725691363,0,0.0,243.11995071491003
575.0,10.991679856672345,50.87356252470036,1722.9910725691363,0,0.0,243.11938007716708
576.0,10.99094428442374,50.8733272253976,1722.9910725691363,0,0.0,243.11880944674166
577.0,10.990208719602311,50.87309192147206,1722.9910725691363,0,0.0,243.11823882143477
578.0,10.989473162208073,50.87285661292386,1722.9910725691363,0,0.0,243.1176682076179
579.0,10.98873761224103,50.87262129975306,1722.9910725691363,0,0.0,243.11709759886924
580.0,10.988002069701196,50.87238598195975,1722.9910725691363,0,0.0,243.11652699889913
581.0,10.987266534588569,50.87215065954402,1722.9910725691363,0,0.0,243.11595640695768
582.0,10.986531006903169,50.87191533250595,1722.9910725691363,0,0.0,243.11538582177056
583.0,10.985795486644996,50.87168000084563,1722.9910725691363,0,0.0,243.11481524518646
584.0,10.985059973814066,50.87144466456315,1722.9910725691363,0,0.0,243.11424467603092
585.0,10.984324468410378,50.871209323658576,1722.9910725691363,0,0.0,243.11367411339168
586.0,10.983588970433951,50.87097397813201,1722.9910725691363,0,0.0,243.11310355865538
587.0,10.982853479884788,50.87073862798354,1722.9910725691363,0,0.0,243.1125330134583
588.0,10.982117996762897,50.87050327321323,1722.9910725691363,0,0.0,243.11196247380263
589.0,10.981382521068289,50.870267913821195,1722.9910725691363,0,0.0,243.11139194266138
590.0,10.98064705280097,50.870032549807505,1722.9910725691363,0,0.0,243.1108214202843
591.0,10.979911591960951,50.86979718117224,1722.9910725691363,0,0.0,243.11025090366041
592.0,10.979176138548238,50.8695618079155,1722.9910725691363,0,0.0,243.10968039632496
593.0,10.978440692562842,50.869326430037354,1722.9910725691363,0,0.0,243.10910989520465
594.0,10.977705254004771,50.8690910475379,1722.9910725691363,0,0.0,243.10853940254782
595.0,10.976969822874032,50.868855660417225,1722.9910725691363,0,0.0,243.10796891745494
596.0,10.976234399170632,50.86862026867539,1722.9910725691363,0,0.0,243.10739843920123
597.0,10.975498982894589,50.868384872312525,1722.9910725691363,0,0.0,243.10682797082205
598.0,10.974763574045896,50.868149471328685,1722.9910725691363,0,0.0,243.10625750843235
599.0,10.974028172624573,50.867914065723944,1722.9910725691363,0,0.0,243.10568705248147
600.0,10.973292778630627,50.86767865549842,1722.9910725691363,0,0.0,243.10511660831583
601.0,10.972557392064061,50.867443240652165,1722.9910725691363,0,0.0,243.10454616676626
602.0,10.971822012924891,50.867207821185296,1722.9910725691363,0,0.0,243.10397573670164
603.0,10.971086641213118,50.866972397097875,1722.9910725691363,0,0.0,243.10340531211347
604.0,10.970351276928755,50.86673696839,1722.9910725691363,0,0.0,243.10283489697372
605.0,10.96961592007181,50.86650153506176,1722.9910725691363,0,0.0,243.1022644882592
606.0,10.96888057064229,50.866266097113225,1722.9910725691363,0,0.0,243.10169408705673
607.0,10.968145228640203,50.8660306545445,1722.9910725691363,0,0.0,243.1011236947275
608.0,10.96740989406556,50.865795207355646,1722.9910725691363,0,0.0,243.10055330793614
609.0,10.966674566918368,50.86555975554677,1722.9910725691363,0,0.0,243.0999829313668
610.0,10.965939247198635,50.86532429911795,1722.9910725691363,0,0.0,243.09941256153417
611.0,10.965203934906368,50.86508883806926,1722.9910725691363,0,0.0,243.09884219827572
612.0,10.964468630041578,50.8648533724008,1722.9910725691363,0,0.0,243.098271843215
613.0,10.96373333260427,50.864617902112656,1722.9910725691363,0,0.0,243.09770149722638
614.0,10.962998042594458,50.86438242720491,1722.9910725691363,0,0.0,243.09713115761144
615.0,10.962262760012145,50.86414694767763,1722.9910725691363,0,0.0,243.0965608248323
616.0,10.961527484857342,50.86391146353094,1722.9910725691363,0,0.0,243.09599050186148
617.0,10.960792217130056,50.86367597476489,1722.9910725691363,0,0.0,243.09542018488926
618.0,10.960056956830297,50.86344048137958,1722.9910725691363,0,0.0,243.09484987575138
619.0,10.959321703958073,50.863204983375105,1722.9910725691363,0,0.0,243.0942795762089
620.0,10.958586458513388,50.86296948075153,1722.9910725691363,0,0.0,243.09370928120325
621.0,10.957851220496256,50.86273397350896,1722.9910725691363,0,0.0,243.0931389967917
622.0,10.957115989906681,50.86249846164745,1722.9910725691363,0,0.0,243.09256871765336
623.0,10.956380766744674,50.862262945167124,1722.9910725691363,0,0.0,243.09199844837195
624.0,10.955645551010244,50.86202742406804,1722.9910725691363,0,0.0,243.0914281846757
625.0,10.954910342703396,50.86179189835029,1722.9910725691363,0,0.0,243.09085792932473
626.0,10.95417514182414,50.861556368013964,1722.9910725691363,0,0.0,243.09028768164427
627.0,10.953439948372488,50.86132083305916,1722.9910725691363,0,0.0,243.08971744345772
628.0,10.95270476234844,50.861085293485935,1722.9910725691363,0,0.0,243.08914721131788
629.0,10.95196958375201,50.860849749294395,1722.9910725691363,0,0.0,243.08857698638576
630.0,10.951234412583206,50.86061420048461,1722.9910725691363,0,0.0,243.088006768649
631.0,10.950499248842036,50.8603786470567,1722.9910725691363,0,0.0,243.0874365626411
632.0,10.949764092528504,50.8601430890107,1722.9910725691363,0,0.0,243.08686635851996
633.0,10.949028943642626,50.85990752634673,1722.9910725691363,0,0.0,243.08629616561495
634.0,10.948293802184402,50.85967195906485,1722.9910725691363,0,0.0,243.08572597786898
635.0,10.947558668153846,50.85943638716518,1722.9910725691363,0,0.0,243.08515580237545
636.0,10.946823541550962,50.85920081064778,1722.9910725691363,0,0.0,243.08458562965478
637.0,10.946088422375764,50.85896522951275,1722.9910725691363,0,0.0,243.08401546829947
638.0,10.945353310628253,50.85872964376015,1722.9910725691363,0,0.0,243.08344531106576
639.0,10.94461820630844,50.85849405339009,1722.9910725691363,0,0.0,243.0828751645725
640.0,10.943883109416337,50.85825845840265,1722.9910725691363,0,0.0,243.0823050248605
641.0,10.943148019951947,50.858022858797916,1722.9910725691363,0,0.0,243.08173489219178
642.0,10.94241293791528,50.85778725457598,1722.9910725691363,0,0.0,243.08116476822738
643.0,10.941677863306344,50.8575516457369,1722.9910725691363,0,0.0,243.08059464890817
644.0,10.940942796125146,50.85731603228079,1722.9910725691363,0,0.0,243.08002454188954
645.0,10.940207736371699,50.857080414207715,1722.9910725691363,0,0.0,243.07945443879117
646.0,10.939472684046006,50.85684479151779,1722.9910725691363,0,0.0,243.07888434538313
647.0,10.938737639148076,50.85660916421108,1722.9910725691363,0,0.0,243.07831426031618
648.0,10.938002601677917,50.856373532287655,1722.9910725691363,0,0.0,243.07774417979346
649.0,10.937267571635541,50.85613789574763,1722.9910725691363,0,0.0,243.07717410974698
650.0,10.93653254902095,50.85590225459108,1722.9910725691363,0,0.0,243.0766040466301
651.0,10.935797533834155,50.855666608818076,1722.9910725691363,0,0.0,243.07603399014238
652.0,10.935062526075162,50.85543095842872,1722.9910725691363,0,0.0,243.0754639423571
653.0,10.934327525743983,50.855195303423095,1722.9910725691363,0,0.0,243.07489390135075
654.0,10.933592532840624,50.85495964380129,1722.9910725691363,0,0.0,243.07432386993304
655.0,10.93285754736509,50.85472397956337,1722.9910725691363,0,0.0,243.07375384347068
656.0,10.932122569317396,50.85448831070945,1722.9910725691363,0,0.0,243.0731838280075
657.0,10.93138759869755,50.85425263723959,1722.9910725691363,0,0.0,243.07261381646256
658.0,10.930652635505547,50.854016959153896,1722.9910725691363,0,0.0,243.07204381584256
659.0,10.929917679741408,50.85378127645243,1722.9910725691363,0,0.0,243.0714738204012
660.0,10.929182731405138,50.8535455891353,1722.9910725691363,0,0.0,243.07090383449727
661.0,10.92844779049674,50.853309897202585,1722.9910725691363,0,0.0,243.07033385540905
662.0,10.92771285701623,50.853074200654376,1722.9910725691363,0,0.0,243.0697638851952
663.0,10.926977930963611,50.85283849949072,1722.9910725691363,0,0.0,243.06919391888675
664.0,10.92624301233889,50.85260279371175,1722.9910725691363,0,0.0,243.0686239643004
665.0,10.92550810114208,50.85236708331755,1722.9910725691363,0,0.0,243.06805401795165
666.0,10.924773197373186,50.85213136830818,1722.9910725691363,0,0.0,243.06748407499538
667.0,10.924038301032214,50.851895648683715,1722.9910725691363,0,0.0,243.06691414146326
