Time,Longitude  ,Latitude,Altitude,Roll (deg),Pitch (deg),Yaw (deg)
0.0,10.9398,50.9815,315.7728,0,0.0,0.0
1.0,10.939799999999991,50.9815,316.4326488056778,0,5.0,270.0
2.0,10.939799999999991,50.9815,317.65234846398425,0,5.0,0.0
3.0,10.939799999999991,50.9815,319.4319027372045,0,5.0,0.0
4.0,10.939799999999991,50.9815,321.7713171029663,0,5.0,0.0
5.0,10.939799999999991,50.9815,324.6705987542525,0,5.0,0.0
6.0,10.939799999999991,50.9815,328.12975659941765,0,5.0,0.0
7.0,10.939799999999991,50.9815,332.148801262208,0,5.0,0.0
8.0,10.939799999999991,50.9815,336.7277450817859,0,5.0,0.0
9.0,10.939799999999991,50.9815,341.8666021127578,0,5.0,0.0
10.0,10.939799999999991,50.9815,347.5653881252063,0,5.0,0.0
11.0,10.939799999999991,50.9815,353.8241206047261,0,5.0,0.0
12.0,10.939799999999991,50.9815,360.6428187524636,0,5.0,0.0
13.0,10.939799999999991,50.9815,368.0215034851608,0,5.0,0.0
14.0,10.939799999999991,50.9815,375.9601974352028,0,5.0,0.0
15.0,10.939799999999991,50.9815,384.4589249506695,0,5.0,0.0
16.0,10.939799999999991,50.9815,393.5177120953906,0,5.0,0.0
17.0,10.939799999999991,50.9815,403.1365866490055,0,5.0,0.0
18.0,10.939851484446422,50.981495444619995,412.7092935495821,0,5.0,98.00000000508157
19.0,10.93993346273453,50.98148819111166,422.2183109546629,0,-5.0,97.99999999278685
20.0,10.940040436290246,50.98147872598753,431.66366801548355,0,-5.0,98.00000000013677
21.0,10.9401724050972,50.98146704924227,441.0453936863076,0,-5.0,97.99999999836496
22.0,10.940329369135384,50.98145316087055,450.36351672451786,0,-5.0,98.0000000004431
23.0,10.940511328381234,50.981437060867016,459.61806569070694,0,-5.0,98.00000000401582
24.0,10.940718282807637,50.981418749226336,468.8090689487675,0,-5.0,98.00000000231898
25.0,10.940950232383898,50.98139822594318,477.93655466598153,0,-5.0,97.99999999987534
26.0,10.94120717707571,50.981375491012216,487.00055081310944,0,-5.0,97.99999999576244
27.0,10.941489116845219,50.98135054442808,496.001085164478,0,-5.0,97.99999999894516
28.0,10.94179605165101,50.98132338618544,504.93818529806816,0,-5.0,98.00000000260349
29.0,10.942127981448095,50.98129401627896,513.8118785956019,0,-5.0,97.99999999911893
30.0,10.942484906187929,50.981262434703304,522.6221922426287,0,-5.0,98.00000000062988
31.0,10.942866825818356,50.981228641453136,531.369153228611,0,-5.0,97.99999999957555
32.0,10.943273740283672,50.98119263652311,540.0527883470097,0,-5.0,97.99999999954412
33.0,10.943705649524617,50.98115441990789,548.6731241953685,0,-5.0,98.00000000063557
34.0,10.944162553478293,50.981113991602136,557.2301871753976,0,-5.0,98.00000000074033
35.0,10.944644452078307,50.98107135160052,565.7240034930575,0,-5.0,97.99999999929759
36.0,10.945132548284477,50.98102816316087,574.1545991586406,0,-5.0,97.99999999901684
37.0,10.94562064403658,50.98098497472123,582.52199998821,0,-5.0,97.99999999955764
38.0,10.946108739334676,50.98094178628158,590.8262316041277,0,-5.0,97.99999999977206
39.0,10.946596834178735,50.98089859784194,599.0673194351346,0,-5.0,97.99999999930458
40.0,10.947084928568756,50.9808554094023,607.2452887164316,0,-5.0,97.9999999994111
41.0,10.94757302250477,50.98081222096266,615.3601644897587,0,-5.0,97.99999999854253
42.0,10.948061115986746,50.980769032523014,623.4119716034742,0,-5.0,98.00000000161873
43.0,10.948549209014686,50.980725844083366,631.4007347126325,0,-5.0,98.0000000012239
44.0,10.949037301588618,50.980682655643726,639.3264782790623,0,-5.0,98.00000000154716
45.0,10.949525393708512,50.980639467204085,647.1892265714437,0,-5.0,98.00000000002558
46.0,10.950013485374399,50.980596278764445,654.9890036653844,0,-5.0,98.00000000035942
47.0,10.950501576586277,50.98055309032482,662.725833443496,0,-5.0,97.99999999901826
48.0,10.950989667344118,50.980509901885185,670.3997395954685,0,-5.0,98.00000000220336
49.0,10.95147775764795,50.98046671344555,678.0107456181462,0,-5.0,97.9999999997097
50.0,10.951965847497775,50.98042352500591,685.5588748156006,0,-5.0,98.00000000130495
51.0,10.952453936893562,50.98038033656629,693.0441502992043,0,-5.0,97.99999999872921
52.0,10.952942025835313,50.98033714812667,700.4665949877041,0,-5.0,97.99999999849774
53.0,10.953430114323083,50.98029395968705,707.8262316072928,0,-5.0,97.99999999910278
54.0,10.953918202356846,50.980250771247434,715.1230826916811,0,-5.0,97.99999999844448
55.0,10.9544062899366,50.980207582807815,722.3571705821686,0,-5.0,98.00000000013051
56.0,10.954894377062345,50.9801643943682,729.528517427714,0,-5.0,97.99999999892702
57.0,10.955382463734082,50.98012120592859,736.637145185005,0,-5.0,97.99999999951194
58.0,10.955870549951783,50.98007801748897,743.6830756185277,0,-5.0,97.99999999936364
59.0,10.956358635715475,50.98003482904936,750.6663303006351,0,-5.0,97.99999999995919
60.0,10.956846721025158,50.979991640609754,757.5869306116148,0,-5.0,97.99999999827247
61.0,10.957334805880862,50.97994845217014,764.4448977397568,0,-5.0,98.00000000074164
62.0,10.957822890282529,50.97990526373053,771.24025268142,0,-5.0,98.00000000013586
63.0,10.958310974230187,50.97986207529092,777.9730162410983,0,-5.0,98.00000000196712
64.0,10.958799057723866,50.9798188868513,784.6432090314865,0,-5.0,98.00000000216454
65.0,10.959287140763536,50.97977569841168,791.2508514735451,0,-5.0,98.00000000289475
66.0,10.959775223349226,50.97973250997207,797.7959637965644,0,-5.0,98.00000000199117
67.0,10.960263305480908,50.97968932153246,804.2785660382285,0,-5.0,97.99999999926843
68.0,10.96075138715858,50.97964613309286,810.6986780446786,0,-5.0,98.00000000058316
69.0,10.961239468382274,50.97960294465326,817.056319470575,0,-5.0,97.99999999973403
70.0,10.96172754915196,50.97955975621366,823.3515097791596,0,-5.0,97.99999999939189
71.0,10.962215629467664,50.97951656777406,829.5842682423171,0,-5.0,98.00000000146099
72.0,10.962703709329361,50.97947337933447,835.7546139406353,0,-5.0,98.00000000057366
73.0,10.963191788737078,50.97943019089487,841.8625657634658,0,-5.0,98.0000000009602
74.0,10.963679867690814,50.97938700245527,847.908142408983,0,-5.0,98.00000000136492
75.0,10.964167946190543,50.97934381401568,853.8913623842437,0,-5.0,98.00000000108781
76.0,10.964656024236291,50.97930062557608,859.8122440052446,0,-5.0,98.00000000039142
77.0,10.965144101828031,50.97925743713649,865.6708053969804,0,-5.0,98.00000000128802
78.0,10.965632178965791,50.9792142486969,871.4670644935013,0,-5.0,98.00000000004644
79.0,10.966120255649571,50.97917106025731,877.2010390379687,0,-5.0,98.00000000286803
80.0,10.966608331879371,50.979127871817724,882.8727465827117,0,-5.0,97.99999999931089
81.0,10.967096407655191,50.97908468337815,888.4822044892821,0,-5.0,98.00000000042417
82.0,10.967584482977031,50.97904149493856,894.0294299285094,0,-5.0,98.00000000039256
83.0,10.968072557844891,50.978998306498994,899.5144398805546,0,-5.0,97.9999999986602
84.0,10.968560632258772,50.97895511805943,904.9372511349638,0,-5.0,97.99999999692022
85.0,10.969048706218672,50.97891192961987,910.2978802907212,0,-5.0,97.99999999752458
86.0,10.969536779724592,50.978868741180314,915.5963437563012,0,-5.0,97.99999999698406
87.0,10.970024852776532,50.97882555274075,920.8326577497202,0,-5.0,97.99999999997658
88.0,10.970512925374521,50.97878236430118,926.0068382985877,0,-5.0,97.99999999956503
89.0,10.97100099751853,50.97873917586162,931.1189012401568,0,-5.0,97.9999999991046
90.0,10.971489069208559,50.97869598742205,936.1688622213742,0,-5.0,98.000000000407
91.0,10.971977140444608,50.97865279898248,941.1567366989291,0,-5.0,98.00000000167603
92.0,10.972465211226705,50.97860961054292,946.0825399393024,0,-5.0,97.99999999964393
93.0,10.972953281554823,50.978566422103356,950.9462870188145,0,-5.0,98.00000000036778
94.0,10.973441351428988,50.97852323366379,955.7479928236727,0,-5.0,97.99999999956071
95.0,10.973929420849146,50.97848004522424,960.4876720500184,0,-5.0,97.99999999962091
96.0,10.974417489815352,50.97843685678468,965.1653392039733,0,-5.0,98.00000000054331
97.0,10.974905558327606,50.97839366834512,969.7810086016848,0,-5.0,97.99999999976501
98.0,10.975393626385909,50.978350479905565,974.3346943693715,0,-5.0,98.00000000133099
99.0,10.975881693990232,50.97830729146601,978.8264104433674,0,-5.0,98.00000000158218
100.0,10.976369761140603,50.978264103026454,983.2561705701662,0,-5.0,98.00000000027683
101.0,10.976857827836994,50.97822091458691,987.6239883064641,0,-5.0,97.99999999942696
102.0,10.977345894079434,50.97817772614738,991.9298770192026,0,-5.0,97.99999999813213
103.0,10.977833959867922,50.97813453770784,996.1738498856113,0,-5.0,97.99999999743704
104.0,10.97832202520243,50.978091349268304,1000.3559198932481,0,-5.0,97.99999999899347
105.0,10.978810090083016,50.97804816082876,1004.4760998400415,0,-5.0,98.00000000019764
106.0,10.97929815450965,50.97800497238922,1008.5344023343298,0,-5.0,97.99999999900115
107.0,10.979786218482332,50.97796178394968,1012.5308397949017,0,-5.0,98.0000000007048
108.0,10.980274282001062,50.97791859551015,1016.4654244510347,0,-5.0,98.00000000010039
109.0,10.980762345065813,50.977875407070606,1020.3381683425339,0,-5.0,98.0000000017476
110.0,10.981250407676612,50.97783221863106,1024.1490833197702,0,-5.0,98.00000000057224
111.0,10.981738469833488,50.977789030191516,1027.8981810437172,0,-5.0,98.00000000132951
112.0,10.982226531536412,50.977745841751975,1031.585472985988,0,-5.0,98.00000000314958
113.0,10.982714592785356,50.97770265331245,1035.2109704288716,0,-5.0,97.99999999960988
114.0,10.983202653580378,50.977659464872914,1038.7746844653684,0,-5.0,98.00000000155893
115.0,10.983690713921447,50.977616276433395,1042.2766259992247,0,-5.0,97.9999999981739
116.0,10.984178773808594,50.977573087993875,1045.7168057449674,0,-5.0,97.9999999990219
117.0,10.98466683324176,50.97752989955435,1049.0952342279377,0,-5.0,98.00000000137015
118.0,10.985154892221004,50.97748671111483,1052.4119217843245,0,-5.0,98.00000000050983
119.0,10.985642950746325,50.9774435226753,1055.6668785611964,0,-5.0,97.99999999964194
120.0,10.986131008817694,50.97740033423578,1058.8601145165342,0,-5.0,97.99999999983692
121.0,10.98661906643511,50.97735714579626,1061.9916394192614,0,-5.0,98.00000000065722
122.0,10.987107123598605,50.97731395735674,1065.0614628492765,0,-5.0,98.00000000042536
123.0,10.987595180308176,50.977270768917236,1068.0695941974816,0,-5.0,97.99999999732961
124.0,10.988083236563824,50.97722758047773,1071.016042665813,0,-5.0,97.99999999946021
125.0,10.98857129236552,50.97718439203821,1073.9008172672695,0,-5.0,98.00000000149049
126.0,10.989059347713265,50.9771412035987,1076.7239268259414,0,-5.0,98.0000000012385
127.0,10.989547402607087,50.977098015159186,1079.4853799770376,0,-5.0,97.99999999935272
128.0,10.990035457046986,50.97705482671968,1082.1851851669137,0,-5.0,98.0000000009743
129.0,10.990523511032961,50.97701163828016,1084.8233506530976,0,-5.0,98.0000000020583
130.0,10.991011564565014,50.976968449840655,1087.399884504316,0,-5.0,98.00000000083423
131.0,10.991499617643143,50.976925261401156,1089.9147946005205,0,-5.0,97.99999999902104
132.0,10.99198767026732,50.97688207296166,1092.3680886329107,0,-5.0,98.00000000001535
133.0,10.992475722437604,50.97683888452216,1094.7597741039601,0,-5.0,97.99999999896409
134.0,10.992963774153935,50.97679569608266,1097.0898583274388,0,-5.0,98.00000000057616
135.0,10.993451825416344,50.97675250764316,1099.358348428437,0,-5.0,98.00000000118746
136.0,10.993939876224829,50.97670931920367,1101.5652513433872,0,-5.0,97.99999999946505
137.0,10.994427926579391,50.97666613076419,1103.7105738200858,0,-5.0,97.9999999995054
138.0,10.994915976480058,50.976622942324695,1105.7943224177147,0,-5.0,97.999999999708
139.0,10.995404025926803,50.976579753885204,1107.8165035068623,0,-5.0,98.00000000039188
140.0,10.995892074919652,50.97653656544571,1109.7771232695427,0,-5.0,98.00000000118655
141.0,10.99638012345855,50.976493377006214,1111.6761876992157,0,-5.0,98.0000000017626
142.0,10.996868171543554,50.97645018856674,1113.5137026008056,0,-5.0,97.99999999738554
143.0,10.997356219174634,50.97640700012725,1115.2896735907195,0,-5.0,98.00000000046816
144.0,10.99784426635182,50.97636381168777,1117.004106096865,0,-5.0,98.00000000075391
145.0,10.998332313075082,50.976320623248284,1118.6570053586668,0,-5.0,98.0000000009652
146.0,10.998820359344421,50.97627743480881,1120.2483764270842,0,-5.0,97.99999999881697
147.0,10.999308405159866,50.97623424636932,1121.7782241646262,0,-5.0,98.00000000211628
148.0,10.999796450521416,50.97619105792986,1123.246553245367,0,-5.0,97.9999999984039
149.0,11.000284495429042,50.97614786949038,1124.653368154961,0,-5.0,97.99999999985079
150.0,11.000772539882774,50.97610468105092,1125.9986731906567,0,-5.0,97.99999999966388
151.0,11.001260583882583,50.97606149261145,1127.2824724613097,0,-5.0,97.99999999879526
152.0,11.001748627428498,50.97601830417198,1128.5047698873966,0,-5.0,98.00000000102222
153.0,11.002236670520517,50.97597511573252,1129.6655692010268,0,-5.0,97.99999999911944
154.0,11.002724713158642,50.975931927293054,1130.7648739459544,0,-5.0,97.99999999963813
155.0,11.003212755342872,50.975888738853584,1131.8026874775892,0,-5.0,98.00000000012352
156.0,11.00370079707318,50.97584555041412,1132.7790129630075,0,-5.0,97.99999999992713
157.0,11.004188838349592,50.97580236197465,1133.6938533809619,0,-5.0,98.0000000016376
158.0,11.00467687917211,50.975759173535195,1134.5472115218906,0,-5.0,97.99999999987699
159.0,11.005164919540732,50.975715985095725,1135.3390899879269,0,-5.0,98.00000000101647
160.0,11.00565295945546,50.97567279665627,1136.0694911929058,0,-5.0,98.00000000159264
161.0,11.006140998916294,50.9756296082168,1136.7384173623734,0,-5.0,98.00000000223832
162.0,11.006629037923233,50.97558641977735,1137.3458705335927,0,-5.0,97.99999999875428
163.0,11.007117076476277,50.97554323133791,1137.8918525555507,0,-5.0,97.99999999827321
164.0,11.007605114575426,50.97550004289847,1138.3763650889637,0,-5.0,97.9999999983404
165.0,11.00809315222071,50.97545685445903,1138.7994096062828,0,-5.0,97.99999999740675
166.0,11.008581189412098,50.97541366601959,1139.1609873916987,0,-5.0,97.99999999925478
167.0,11.00906922614962,50.97537047758015,1139.4610995411451,0,-5.0,97.99999999952053
168.0,11.009557262433248,50.97532728914071,1139.6997469623034,0,-5.0,97.99999999910449
169.0,11.01004529826298,50.97528410070126,1139.876930374604,0,-5.0,98.00000000158855
170.0,11.010533333638847,50.97524091226181,1139.9926503092295,0,-5.0,98.00000000016405
171.0,11.011021368560819,50.975197723822376,1140.046907109116,0,-5.0,97.99999999919521
172.0,11.011509403028924,50.975154535382934,1140.0397009289552,0,-5.0,98.00000000013318
173.0,11.01232784790679,50.975082106122606,1140.0397009289552,0,0.0,97.99999999963131
174.0,11.01314629150815,50.97500967686228,1140.0397009289552,0,0.0,97.99999999955236
175.0,11.013964733833006,50.97493724760196,1140.0397009289552,0,0.0,97.99999999884619
176.0,11.014783174881359,50.97486481834166,1140.0397009289552,0,0.0,97.99999999923136
177.0,11.015601614653235,50.974792389081344,1140.0397009289552,0,0.0,98.00000000008492
178.0,11.016420053148579,50.97471995982105,1140.0397009289552,0,0.0,97.9999999987678
179.0,11.017238490367447,50.974647530560766,1140.0397009289552,0,0.0,97.99999999902991
180.0,11.01805692630984,50.97457510130048,1140.0397009289552,0,0.0,98.000000000368
181.0,11.018875360975755,50.97450267204021,1140.0397009289552,0,0.0,97.99999999936051
182.0,11.019693794365224,50.97443024277994,1140.0397009289552,0,0.0,97.9999999998463
183.0,11.020512226478218,50.97435781351968,1140.0397009289552,0,0.0,97.99999999960369
184.0,11.021330657314735,50.97428538425942,1140.0397009289552,0,0.0,98.00000000048306
185.0,11.022149086874805,50.97421295499918,1140.0397009289552,0,0.0,97.99999999904139
186.0,11.022967515158427,50.97414052573894,1140.0397009289552,0,0.0,98.00000000077165
187.0,11.023785942165631,50.9740680964787,1140.0397009289552,0,0.0,97.99999999950262
188.0,11.024604367896387,50.973995667218475,1140.0397009289552,0,0.0,98.00000000029468
189.0,11.025422792350724,50.97392323795826,1140.0397009289552,0,0.0,97.99999999912768
190.0,11.026241215528643,50.973850808698046,1140.0397009289552,0,0.0,98.00000000010772
191.0,11.027059637430114,50.973778379437846,1140.0397009289552,0,0.0,97.99999999966576
192.0,11.027878058055194,50.973705950177646,1140.0397009289552,0,0.0,97.99999999941605
193.0,11.028696477403827,50.97363352091746,1140.0397009289552,0,0.0,97.99999999976967
194.0,11.02951489547607,50.973561091657274,1140.0397009289552,0,0.0,97.9999999999688
195.0,11.030333312271921,50.9734886623971,1140.0397009289552,0,0.0,97.99999999919396
196.0,11.031151727791354,50.973416233136945,1140.0397009289552,0,0.0,97.99999999907777
197.0,11.031970142034424,50.973343803876794,1140.0397009289552,0,0.0,97.99999999916912
198.0,11.032788555001105,50.97327137461664,1140.0397009289552,0,0.0,98.00000000061266
199.0,11.033606966691394,50.9731989453565,1140.0397009289552,0,0.0,97.99999999898631
200.0,11.034425377105322,50.973126516096364,1140.0397009289552,0,0.0,97.999999998884
201.0,11.035243786242887,50.973054086836235,1140.0397009289552,0,0.0,97.99999999985766
202.0,11.03606219410409,50.97298165757612,1140.0397009289552,0,0.0,97.99999999881715
203.0,11.036880600688932,50.97290922831601,1140.0397009289552,0,0.0,97.9999999991993
204.0,11.03769900599741,50.9728367990559,1140.0397009289552,0,0.0,98.0000000013664
205.0,11.038517410029556,50.972764369795804,1140.0397009289552,0,0.0,97.99999999917782
206.0,11.039335812785339,50.97269194053572,1140.0397009289552,0,0.0,97.99999999936631
207.0,11.040154214264788,50.97261951127563,1140.0397009289552,0,0.0,97.99999999967645
208.0,11.040972614467904,50.972547082015545,1140.0397009289552,0,0.0,98.00000000109327
209.0,11.041791013394686,50.97247465275548,1140.0397009289552,0,0.0,97.99999999942486
210.0,11.042609411045163,50.97240222349542,1140.0397009289552,0,0.0,97.99999999894908
211.0,11.043427807419306,50.97232979423538,1140.0397009289552,0,0.0,97.99999999842305
212.0,11.044246202517172,50.97225736497534,1140.0397009289552,0,0.0,97.99999999843595
213.0,11.045064596338705,50.972184935715305,1140.0397009289552,0,0.0,97.99999999942975
214.0,11.045882988883932,50.972112506455275,1140.0397009289552,0,0.0,97.99999999982089
215.0,11.046701380152882,50.972040077195246,1140.0397009289552,0,0.0,98.00000000069576
216.0,11.047519770145556,50.97196764793524,1140.0397009289552,0,0.0,97.9999999988475
217.0,11.048338158861924,50.97189521867523,1140.0397009289552,0,0.0,97.99999999904503
218.0,11.049156546302015,50.97182278941522,1140.0397009289552,0,0.0,98.00000000078182
219.0,11.04997493246583,50.97175036015522,1140.0397009289552,0,0.0,98.00000000011164
220.0,11.050793317353396,50.97167793089523,1140.0397009289552,0,0.0,97.9999999999252
221.0,11.051611700964685,50.971605501635246,1140.0397009289552,0,0.0,98.00000000077478
222.0,11.052430083299726,50.97153307237528,1140.0397009289552,0,0.0,97.99999999894118
223.0,11.053248464358518,50.971460643115314,1140.0397009289552,0,0.0,97.99999999925456
224.0,11.054066844141062,50.971388213855356,1140.0397009289552,0,0.0,97.99999999927218
225.0,11.054885222647357,50.971315784595404,1140.0397009289552,0,0.0,98.00000000003439
226.0,11.055703599877432,50.97124335533546,1140.0397009289552,0,0.0,97.9999999995311
227.0,11.05652197583126,50.97117092607553,1140.0397009289552,0,0.0,97.99999999971715
228.0,11.057340350508866,50.9710984968156,1140.0397009289552,0,0.0,97.99999999999409
229.0,11.058158723910253,50.971026067555684,1140.0397009289552,0,0.0,97.99999999895039
230.0,11.05897709603542,50.970953638295775,1140.0397009289552,0,0.0,97.99999999901331
231.0,11.059795466884395,50.970881209035866,1140.0397009289552,0,0.0,97.99999999918253
232.0,11.06061383645715,50.970808779775965,1140.0397009289552,0,0.0,98.00000000037244
233.0,11.061432204753714,50.97073635051608,1140.0397009289552,0,0.0,97.99999999925666
234.0,11.062250571774086,50.97066392125619,1140.0397009289552,0,0.0,97.99999999992565
235.0,11.063068937518267,50.97059149199631,1140.0397009289552,0,0.0,98.00000000031434
236.0,11.063887301986256,50.97051906273644,1140.0397009289552,0,0.0,97.99999999935153
237.0,11.064705665178082,50.97044663347658,1140.0397009289552,0,0.0,97.99999999989745
238.0,11.065524027093716,50.97037420421672,1140.0397009289552,0,0.0,98.00000000043917
239.0,11.066342387733187,50.97030177495687,1140.0397009289552,0,0.0,97.99999999935329
240.0,11.067160747096523,50.97022934569703,1140.0397009289552,0,0.0,98.00000000012284
241.0,11.067979105183696,50.9701569164372,1140.0397009289552,0,0.0,97.99999999915434
242.0,11.068797461994706,50.97008448717737,1140.0397009289552,0,0.0,98.00000000030218
243.0,11.06961581752958,50.97001205791755,1140.0397009289552,0,0.0,97.99999999915951
244.0,11.070434171788293,50.96993962865774,1140.0397009289552,0,0.0,97.99999999971578
245.0,11.07125252477087,50.96986719939793,1140.0397009289552,3.0,0.0,97.9999999997155
246.0,11.072069068514026,50.96978708625253,1140.0397009289552,6.0,0.0,98.85522771012734
247.0,11.072883620965996,50.969699307071124,1140.0397009289552,8.737842147160787,0.0,99.71045542184663
248.0,11.073696000520698,50.9696038814113,1140.0397009289552,8.737842147160787,0.0,100.5656831322624
249.0,11.074506026058401,50.969500830534244,1140.0397009289552,8.737842147160787,0.0,101.42091084152224
250.0,11.075313516986142,50.96939017739997,1140.0397009289552,8.737842147160787,0.0,102.27613855434754
251.0,11.076118293278256,50.96927194666232,1140.0397009289552,8.737842147160787,0.0,103.13136626248263
252.0,11.076920175516534,50.969146164663314,1140.0397009289552,8.737842147160787,0.0,103.98659397446056
253.0,11.077718984930442,50.969012859427394,1140.0397009289552,8.737842147160787,0.0,104.84182168624346
254.0,11.078514543437109,50.96887206065516,1140.0397009289552,8.737842147160787,0.0,105.69704939725659
255.0,11.079306673681089,50.96872379971672,1140.0397009289552,8.737842147160787,0.0,106.55227710781918
256.0,11.08009519907418,50.968568109644735,1140.0397009289552,8.737842147160787,0.0,107.40750481863415
257.0,11.08087994383473,50.96840502512701,1140.0397009289552,8.737842147160787,0.0,108.26273253009009
258.0,11.081660733027121,50.968234582498845,1140.0397009289552,8.737842147160787,0.0,109.11796024019282
259.0,11.08243739260078,50.968056819734834,1140.0397009289552,8.737842147160787,0.0,109.97318795214471
260.0,11.083209749429187,50.96787177644051,1140.0397009289552,8.737842147160787,0.0,110.82841566290386
261.0,11.083977631348489,50.96767949384344,1140.0397009289552,8.737842147160787,0.0,111.68364337283816
262.0,11.084740867196103,50.96748001478409,1140.0397009289552,8.737842147160787,0.0,112.53887108233454
263.0,11.085499286848886,50.96727338370622,1140.0397009289552,8.737842147160787,0.0,113.39409879527199
264.0,11.086252721261275,50.967059646647066,1140.0397009289552,8.737842147160787,0.0,114.24932650576068
265.0,11.087001002502916,50.966838851227024,1140.0397009289552,8.737842147160787,0.0,115.10455421591007
266.0,11.087743963796356,50.96661104663905,1140.0397009289552,8.737842147160787,0.0,115.95978192690097
267.0,11.088481439554272,50.96637628363768,1140.0397009289552,8.737842147160787,0.0,116.81500963908059
268.0,11.089213265416447,50.966134614527775,1140.0397009289552,8.737842147160787,0.0,117.67023734784289
269.0,11.089939278286494,50.96588609315282,1140.0397009289552,8.737842147160787,0.0,118.52546505973521
270.0,11.090659316368317,50.965630774882946,1140.0397009289552,8.737842147160787,0.0,119.38069277107434
271.0,11.091373219202296,50.9653687166026,1140.0397009289552,8.737842147160787,0.0,120.23592048064728
272.0,11.092080827701011,50.965099976697836,1140.0397009289552,8.737842147160787,0.0,121.0911481927651
273.0,11.092781984184938,50.964824615043355,1140.0397009289552,8.737842147160787,0.0,121.94637590384923
274.0,11.093476532417554,50.964542692989134,1140.0397009289552,8.737842147160787,0.0,122.801603614464
275.0,11.094164317640264,50.96425427334676,1140.0397009289552,8.737842147160787,0.0,123.6568313257846
276.0,11.094845186606904,50.96395942037546,1140.0397009289552,8.737842147160787,0.0,124.5120590354145
277.0,11.09551898761805,50.96365819976773,1140.0397009289552,8.737842147160787,0.0,125.36728674674913
278.0,11.096185570554809,50.96335067863475,1140.0397009289552,8.737842147160787,0.0,126.22251445707775
279.0,11.096844786912357,50.963036925491394,1140.0397009289552,8.737842147160787,0.0,127.0777421683573
280.0,11.097496489832992,50.96271701024102,1140.0397009289552,8.737842147160787,0.0,127.93296987998588
281.0,11.098140534139077,50.96239100415984,1140.0397009289552,8.737842147160787,0.0,128.78819758927568
282.0,11.09877677636527,50.96205897988104,1140.0397009289552,8.737842147160787,0.0,129.6434253014013
283.0,11.099405074790582,50.96172101137866,1140.0397009289552,8.737842147160787,0.0,130.49865301199748
284.0,11.100025289470011,50.961377173951036,1140.0397009289552,8.737842147160787,0.0,131.35388072199203
285.0,11.100637282265694,50.961027544204065,1140.0397009289552,8.737842147160787,0.0,132.20910843338606
286.0,11.101240916877742,50.960672200034125,1140.0397009289552,8.737842147160787,0.0,133.06433614483524
287.0,11.101836058874653,50.96031122061072,1140.0397009289552,8.737842147160787,0.0,133.91956385541255
288.0,11.102422575723182,50.95994468635888,1140.0397009289552,8.737842147160787,0.0,134.77479156610224
289.0,11.103000336817956,50.959572678941164,1140.0397009289552,8.737842147160787,0.0,135.63001927744943
290.0,11.103569213510582,50.95919528123953,1140.0397009289552,8.737842147160787,0.0,136.4852469867044
291.0,11.104129079138204,50.958812577336836,1140.0397009289552,8.737842147160787,0.0,137.34047469754535
292.0,11.10467980905176,50.95842465249814,1140.0397009289552,8.737842147160787,0.0,138.19570241002214
293.0,11.105221280643832,50.95803159315166,1140.0397009289552,8.737842147160787,0.0,139.05093012074667
294.0,11.10575337337582,50.95763348686956,1140.0397009289552,8.737842147160787,0.0,139.9061578307975
295.0,11.106275968804795,50.9572304223484,1140.0397009289552,8.737842147160787,0.0,140.76138554135474
296.0,11.106788950609882,50.9568224893894,1140.0397009289552,8.737842147160787,0.0,141.61661325314424
297.0,11.107292204618119,50.95640977887846,1140.0397009289552,8.737842147160787,0.0,142.4718409635616
298.0,11.107785618829894,50.95599238276583,1140.0397009289552,8.737842147160787,0.0,143.32706867305092
299.0,11.10826908344373,50.95557039404567,1140.0397009289552,8.737842147160787,0.0,144.18229638570898
300.0,11.108742490880843,50.95514390673539,1140.0397009289552,8.737842147160787,0.0,145.0375240963914
301.0,11.109205735808956,50.954713015854594,1140.0397009289552,8.737842147160787,0.0,145.8927518072353
302.0,11.10965871516575,50.95427781740398,1140.0397009289552,8.737842147160787,0.0,146.7479795183234
303.0,11.110101328181713,50.95383840834394,1140.0397009289552,8.737842147160787,0.0,147.60320722794995
304.0,11.110533476402537,50.95339488657296,1140.0397009289552,8.737842147160787,0.0,148.45843493875697
305.0,11.110955063710946,50.95294735090576,1140.0397009289552,8.737842147160787,0.0,149.31366265127906
306.0,11.111365996348127,50.95249590105137,1140.0397009289552,8.737842147160787,0.0,150.16889036021013
307.0,11.11176618293436,50.952040637590855,1140.0397009289552,8.737842147160787,0.0,151.0241180723649
308.0,11.11215553448946,50.95158166195488,1140.0397009289552,8.737842147160787,0.0,151.87934578211195
309.0,11.112533964452354,50.9511190764012,1140.0397009289552,8.737842147160787,0.0,152.73457349441446
310.0,11.112901388700351,50.95065298399179,1140.0397009289552,8.737842147160787,0.0,153.5898012056541
311.0,11.113257725567763,50.950183488569934,1140.0397009289552,8.737842147160787,0.0,154.44502891642617
312.0,11.113602895863977,50.94971069473708,1140.0397009289552,8.737842147160787,0.0,155.30025662707612
313.0,11.113936822890963,50.949234707829525,1140.0397009289552,8.737842147160787,0.0,156.15548433706772
314.0,11.114259432460273,50.94875563389494,1140.0397009289552,8.737842147160787,0.0,157.01071204771176
315.0,11.114570652909379,50.948273579668786,1140.0397009289552,8.737842147160787,0.0,157.86593975958306
316.0,11.11487041511765,50.94778865255048,1140.0397009289552,8.737842147160787,0.0,158.72116746890572
317.0,11.115158652521416,50.947300960579504,1140.0397009289552,8.737842147160787,0.0,159.57639518113285
318.0,11.115435301128883,50.946810612411326,1140.0397009289552,8.737842147160787,0.0,160.4316228901505
319.0,11.11570029953404,50.94631771729317,1140.0397009289552,8.737842147160787,0.0,161.28685060246426
320.0,11.115953588930353,50.945822385039726,1140.0397009289552,8.737842147160787,0.0,162.14207831331237
321.0,11.116195113123666,50.94532472600863,1140.0397009289552,8.737842147160787,0.0,162.99730602334512
322.0,11.116424818544516,50.94482485107589,1140.0397009289552,8.737842147160787,0.0,163.8525337354995
323.0,11.116642654260033,50.94432287161124,1140.0397009289552,8.737842147160787,0.0,164.70776144475644
324.0,11.116848571984974,50.94381889945324,1140.0397009289552,8.737842147160787,0.0,165.56298915713842
325.0,11.117042526092462,50.94331304688443,1140.0397009289552,8.737842147160787,0.0,166.41821686876756
326.0,11.117224473623963,50.94280542660628,1140.0397009289552,8.737842147160787,0.0,167.2734445778883
327.0,11.117394374298584,50.94229615171407,1140.0397009289552,8.737842147160787,0.0,168.1286722902155
328.0,11.11755219052202,50.94178533567173,1140.0397009289552,8.737842147160787,0.0,168.98390000098664
329.0,11.117697887394684,50.941273092286565,1140.0397009289552,8.737842147160787,0.0,169.83912771134328
330.0,11.117831432719328,50.94075953568384,1140.0397009289552,8.737842147160787,0.0,170.69435542192468
331.0,11.11795279700803,50.9402447802814,1140.0397009289552,8.737842147160787,0.0,171.5495831328259
332.0,11.118061953488592,50.93972894076417,1140.0397009289552,8.737842147160787,0.0,172.4048108450936
333.0,11.118158878110393,50.939212132058614,1140.0397009289552,8.737842147160787,0.0,173.26003855429838
334.0,11.118243549549447,50.938694469307144,1140.0397009289552,8.737842147160787,0.0,174.11526626495947
335.0,11.11831594921307,50.93817606784239,1140.0397009289552,8.737842147160787,0.0,174.97049397563364
336.0,11.118376061243794,50.937657043161586,1140.0397009289552,8.737842147160787,0.0,175.82572168661022
337.0,11.118423872522726,50.93713751090084,1140.0397009289552,8.737842147160787,0.0,176.6809493987787
338.0,11.118459372672334,50.93661758680929,1140.0397009289552,8.737842147160787,0.0,177.53617710980814
339.0,11.118482554058517,50.936097386723425,1140.0397009289552,8.737842147160787,0.0,178.39140482066864
340.0,11.118493411792144,50.935577026541196,1140.0397009289552,8.737842147160787,0.0,179.24663253159656
341.0,11.118491943729964,50.93505662219622,1140.0397009289552,8.737842147160787,0.0,180.10186024228517
342.0,11.118478150474914,50.93453628963195,1140.0397009289552,8.737842147160787,0.0,180.95708795125896
343.0,11.118452035375725,50.934016144775846,1140.0397009289552,8.737842147160787,0.0,181.81231566214637
344.0,11.118413604526069,50.933496303513564,1140.0397009289552,8.737842147160787,0.0,182.66754337352387
345.0,11.118362866763022,50.93297688166312,1140.0397009289552,8.737842147160787,0.0,183.52277108377956
346.0,11.11829983366485,50.93245799494909,1140.0397009289552,8.737842147160787,0.0,184.37799879488273
347.0,11.118224519548278,50.9319397589768,1140.0397009289552,8.737842147160787,0.0,185.23322650731825
348.0,11.118136941465195,50.931422289206644,1140.0397009289552,8.737842147160787,0.0,186.08845421618582
349.0,11.118037119198505,50.93090570092828,1140.0397009289552,8.737842147160787,0.0,186.9436819278821
350.0,11.117925075257688,50.93039010923498,1140.0397009289552,8.737842147160787,0.0,187.7989096390008
351.0,11.117800834873549,50.92987562899798,1140.0397009289552,8.737842147160787,0.0,188.65413734963107
352.0,11.117664425992416,50.929362374840935,1140.0397009289552,8.737842147160787,0.0,189.50936506048876
353.0,11.117515879269746,50.928850461114294,1140.0397009289552,8.737842147160787,0.0,190.36459277181785
354.0,11.117355228063133,50.9283400018699,1140.0397009289552,8.737842147160787,0.0,191.21982048271312
355.0,11.11718250842469,50.92783111083555,1140.0397009289552,8.737842147160787,0.0,192.07504819366386
356.0,11.116997759092868,50.92732390138965,1140.0397009289552,8.737842147160787,0.0,192.93027590373214
357.0,11.116801021483582,50.926818486535964,1140.0397009289552,8.737842147160787,0.0,193.78550361597652
358.0,11.116592339680949,50.92631497887845,1140.0397009289552,8.737842147160787,0.0,194.64073132690297
359.0,11.116371760427228,50.925813490596155,1140.0397009289552,8.737842147160787,0.0,195.49595903547984
360.0,11.116139333112159,50.92531413341821,1140.0397009289552,8.737842147160787,0.0,196.35118674861243
361.0,11.115895109761993,50.924817018599,1140.0397009289552,8.737842147160787,0.0,197.20641445962738
362.0,11.115639145027615,50.92432225689329,1140.0397009289552,8.737842147160787,0.0,198.06164217069903
363.0,11.115371496172259,50.92382995853163,1140.0397009289552,8.737842147160787,0.0,198.91686988137485
364.0,11.115092223058582,50.92334023319572,1140.0397009289552,8.737842147160787,0.0,199.7720975909905
365.0,11.114801388135191,50.92285318999406,1140.0397009289552,8.737842147160787,0.0,200.62732530208137
366.0,11.114499056422574,50.92236893743757,1140.0397009289552,8.737842147160787,0.0,201.48255301417504
367.0,11.114185295498544,50.92188758341544,1140.0397009289552,8.737842147160787,0.0,202.33778072384428
368.0,11.113860175482955,50.921409235171105,1140.0397009289552,8.737842147160787,0.0,203.19300843453857
369.0,11.11352376902201,50.92093399927834,1140.0397009289552,8.737842147160787,0.0,204.04823614596253
370.0,11.113176151271915,50.920461981617514,1140.0397009289552,8.737842147160787,0.0,204.90346385744
371.0,11.112817399882061,50.91999328735198,1140.0397009289552,8.737842147160787,0.0,205.75869156781724
372.0,11.112447594977596,50.919528020904714,1140.0397009289552,8.737842147160787,0.0,206.61391927663217
373.0,11.112066819141376,50.919066285934996,1140.0397009289552,8.737842147160787,0.0,207.469146988663
374.0,11.111675157395553,50.9186081853153,1140.0397009289552,8.737842147160787,0.0,208.32437469909365
375.0,11.111272697182471,50.91815382110841,1140.0397009289552,8.737842147160787,0.0,209.1796024119927
376.0,11.110859528345202,50.917703294544694,1140.0397009289552,8.737842147160787,0.0,210.03483012145134
377.0,11.110435743107246,50.917256705999485,1140.0397009289552,8.737842147160787,0.0,210.89005783205624
378.0,11.110001436052045,50.9168141549708,1140.0397009289552,8.737842147160787,0.0,211.74528554204474
379.0,11.10955670410172,50.91637574005712,1140.0397009289552,8.737842147160787,0.0,212.60051325388199
380.0,11.109101646495475,50.91594155893543,1140.0397009289552,8.737842147160787,0.0,213.45574096547713
381.0,11.108636364767392,50.91551170833947,1140.0397009289552,8.737842147160787,0.0,214.3109686770424
382.0,11.108160962723758,50.91508628403819,1140.0397009289552,8.737842147160787,0.0,215.16619638677128
383.0,11.107675546419756,50.91466538081436,1140.0397009289552,8.737842147160787,0.0,216.0214240980802
384.0,11.10718022413596,50.914249092443534,1140.0397009289552,8.737842147160787,0.0,216.87665180834333
385.0,11.106675106353975,50.913837511673094,1140.0397009289552,8.737842147160787,0.0,217.73187951983738
386.0,11.106160305731947,50.91343073020163,1140.0397009289552,8.737842147160787,0.0,218.58710722955107
387.0,11.105635937079228,50.913028838658455,1140.0397009289552,8.737842147160787,0.0,219.44233494083755
388.0,11.105102117330944,50.91263192658349,1140.0397009289552,8.737842147160787,0.0,220.29756265138099
389.0,11.104558965521761,50.912240082407216,1140.0397009289552,8.737842147160787,0.0,221.1527903615523
390.0,11.104006602759426,50.91185339343108,1140.0397009289552,8.737842147160787,0.0,222.00801807232003
391.0,11.103445152197708,50.91147194580799,1140.0397009289552,8.737842147160787,0.0,222.86324578596327
392.0,11.102874739009025,50.91109582452308,1140.0397009289552,8.737842147160787,0.0,223.71847349489957
393.0,11.102295490356397,50.91072511337485,1140.0397009289552,8.737842147160787,0.0,224.57370120754865
394.0,11.101707535365279,50.91035989495645,1140.0397009289552,8.737842147160787,0.0,225.42892891749648
395.0,11.101111005094708,50.91000025063731,1140.0397009289552,8.737842147160787,0.0,226.2841566265686
396.0,11.100506032508036,50.90964626054498,1140.0397009289552,8.737842147160787,0.0,227.13938433848315
397.0,11.099892752443452,50.909298003547306,1140.0397009289552,8.737842147160787,0.0,227.99461204892094
398.0,11.099271301583855,50.908955557234826,1140.0397009289552,8.737842147160787,0.0,228.8498397599876
399.0,11.098641818426444,50.90861899790351,1140.0397009289552,8.737842147160787,0.0,229.70506747254558
400.0,11.098004443251995,50.90828840053775,1140.0397009289552,8.737842147160787,0.0,230.56029518221402
401.0,11.097359318093481,50.90796383879366,1140.0397009289552,8.737842147160787,0.0,231.41552289262205
402.0,11.0967065867045,50.90764538498267,1140.0397009289552,8.737842147160787,0.0,232.27075060564778
403.0,11.096046394527377,50.907333110055376,1140.0397009289552,8.737842147160787,0.0,233.12597831549382
404.0,11.095378888660747,50.90702708358578,1140.0397009289552,8.737842147160787,0.0,233.981206025784
405.0,11.09470421782683,50.90672737375578,1140.0397009289552,8.737842147160787,0.0,234.83643373567037
406.0,11.094022532338357,50.90643404733996,1140.0397009289552,8.737842147160787,0.0,235.6916614472065
407.0,11.09333398406514,50.90614716969073,1140.0397009289552,8.737842147160787,0.0,236.54688915784243
408.0,11.092638726400338,50.905866804723765,1140.0397009289552,8.737842147160787,0.0,237.40211686867758
409.0,11.091936914226324,50.90559301490373,1140.0397009289552,8.737842147160787,0.0,238.25734457890616
410.0,11.091228703880262,50.90532586123041,1140.0397009289552,8.737842147160787,0.0,239.11257228902906
411.0,11.090514253119352,50.9050654032251,1140.0397009289552,8.737842147160787,0.0,239.96780000113026
412.0,11.089793721085783,50.904811698917335,1140.0397009289552,8.737842147160787,0.0,240.82302771139825
413.0,11.089067268271378,50.90456480483197,1140.0397009289552,8.737842147160787,0.0,241.6782554222088
414.0,11.088335056481924,50.904324775976605,1140.0397009289552,6.0,0.0,242.53348313455254
415.0,11.087597248801217,50.90409166582926,1140.0397009289552,3.0,0.0,243.38871084446953
416.0,11.086860693933142,50.903856990036125,1140.0397009289552,0,0.0,243.1957476266232
417.0,11.086124146490537,50.90362230960887,1140.0397009289552,0,0.0,243.19517599049811
418.0,11.085387606473416,50.90338762454761,1140.0397009289552,0,0.0,243.1946043668294
419.0,11.084651073881789,50.90315293485244,1140.0397009289552,0,0.0,243.19403274976435
420.0,11.083914548715658,50.90291824052343,1140.0397009289552,0,0.0,243.19346113992782
421.0,11.083178030975043,50.90268354156066,1140.0397009289552,0,0.0,243.19288953682172
422.0,11.082441520659948,50.90244883796423,1140.0397009289552,0,0.0,243.19231794166853
423.0,11.081705017770384,50.90221412973422,1140.0397009289552,0,0.0,243.1917463563072
424.0,11.080968522306359,50.9019794168707,1140.0397009289552,0,0.0,243.19117477526123
425.0,11.080232034267883,50.90174469937378,1140.0397009289552,0,0.0,243.19060320374405
426.0,11.079495553654967,50.901509977243535,1140.0397009289552,0,0.0,243.19003164029232
427.0,11.078759080467622,50.901275250480055,1140.0397009289552,0,0.0,243.18946008413144
428.0,11.078022614705853,50.90104051908342,1140.0397009289552,0,0.0,243.18888853639794
429.0,11.07728615636967,50.90080578305372,1140.0397009289552,0,0.0,243.18831699422915
430.0,11.076549705459088,50.90057104239103,1140.0397009289552,0,0.0,243.18774546081363
431.0,11.07581326197411,50.90033629709544,1140.0397009289552,0,0.0,243.1871739350368
432.0,11.075076825914751,50.90010154716704,1140.0397009289552,0,0.0,243.18660241707536
433.0,11.074340397281016,50.89986679260593,1140.0397009289552,0,0.0,243.18603090754038
434.0,11.073603976072915,50.89963203341215,1140.0397009289552,0,0.0,243.1854594035194
435.0,11.072867562290462,50.89939726958584,1140.0397009289552,0,0.0,243.18488790965023
436.0,11.072131155933663,50.89916250112705,1140.0397009289552,0,0.0,243.18431642191968
437.0,11.071394757002526,50.898927728035886,1140.0397009289552,0,0.0,243.18374494319016
438.0,11.070658365497064,50.89869295031241,1140.0397009289552,0,0.0,243.18317346966143
439.0,11.069921981417284,50.89845816795673,1140.0397009289552,0,0.0,243.1826020072212
440.0,11.069185604763197,50.898223380968915,1140.0397009289552,0,0.0,243.18203054883102
441.0,11.068449235534814,50.89798858934906,1140.0397009289552,0,0.0,243.181459099817
442.0,11.067712873732138,50.897753793097266,1140.0397009289552,0,0.0,243.180887660052
443.0,11.066976519355183,50.89751899221358,1140.0397009289552,0,0.0,243.1803162246627
444.0,11.066240172403958,50.89728418669811,1140.0397009289552,0,0.0,243.17974479957286
445.0,11.065503832878473,50.89704937655094,1140.0397009289552,0,0.0,243.1791733805204
446.0,11.06476750077874,50.89681456177216,1140.0397009289552,0,0.0,243.17860197072991
447.0,11.064031176104761,50.89657974236186,1140.0397009289552,0,0.0,243.17803056816308
448.0,11.063294858856551,50.896344918320096,1140.0397009289552,0,0.0,243.17745917100817
449.0,11.06255854903412,50.89611008964699,1140.0397009289552,0,0.0,243.17688778462724
450.0,11.061822246637472,50.8958752563426,1140.0397009289552,0,0.0,243.1763164036443
451.0,11.061085951666621,50.89564041840702,1140.0397009289552,0,0.0,243.1757450314604
452.0,11.060349664121572,50.89540557584035,1140.0397009289552,0,0.0,243.17517366743675
453.0,11.059613384002343,50.89517072864266,1140.0397009289552,0,0.0,243.1746023101872
454.0,11.058877111308938,50.89493587681404,1140.0397009289552,0,0.0,243.17403096119722
455.0,11.058140846041363,50.894701020354574,1140.0397009289552,0,0.0,243.1734596189675
456.0,11.057404588199631,50.894466159264354,1140.0397009289552,0,0.0,243.17288828594792
457.0,11.056668337783751,50.89423129354345,1140.0397009289552,0,0.0,243.17231695812586
458.0,11.055932094793736,50.893996423191965,1140.0397009289552,0,0.0,243.17174564076342
459.0,11.055195859229583,50.89376154820996,1140.0397009289552,0,0.0,243.17117432769714
460.0,11.054459631091317,50.89352666859755,1140.0397009289552,0,0.0,243.1706030262039
461.0,11.05372341037894,50.89329178435481,1140.0397009289552,0,0.0,243.17003172989405
462.0,11.052987197092454,50.89305689548182,1140.0397009289552,0,0.0,243.16946044231776
463.0,11.052250991231883,50.89282200197867,1140.0397009289552,0,0.0,243.16888916182614
464.0,11.051514792797228,50.89258710384545,1140.0397009289552,0,0.0,243.16831788954244
465.0,11.050778601788496,50.892352201082225,1140.0397009289552,0,0.0,243.16774662281716
466.0,11.0500424182057,50.892117293689104,1140.0397009289552,0,0.0,243.1671753668125
467.0,11.04930624204885,50.891882381666164,1140.0397009289552,0,0.0,243.16660411610337
468.0,11.048570073317952,50.891647465013484,1140.0397009289552,0,0.0,243.16603287553937
469.0,11.047833912013022,50.891412543731164,1140.0397009289552,0,0.0,243.1654616410085
470.0,11.047097758134063,50.891177617819274,1140.0397009289552,0,0.0,243.1648904124972
471.0,11.046361611681084,50.89094268727791,1140.0397009289552,0,0.0,243.1643191944429
472.0,11.045625472654095,50.890707752107154,1140.0397009289552,0,0.0,243.16374798444548
473.0,11.044889341053109,50.89047281230709,1140.0397009289552,0,0.0,243.16317677886832
474.0,11.044153216878131,50.8902378678778,1140.0397009289552,0,0.0,243.16260558337194
475.0,11.043417100129169,50.890002918819384,1140.0397009289552,0,0.0,243.16203439588207
476.0,11.042680990806236,50.88976796513192,1140.0397009289552,0,0.0,243.161463214999
477.0,11.041944888909342,50.889533006815476,1140.0397009289552,0,0.0,243.16089204097196
478.0,11.041208794438491,50.88929804387017,1140.0397009289552,0,0.0,243.16032087687537
479.0,11.040472707393697,50.88906307629606,1140.0397009289552,0,0.0,243.15974971823505
480.0,11.039736627774964,50.888828104093236,1140.0397009289552,0,0.0,243.15917856774982
481.0,11.039000555582309,50.8885931272618,1140.0397009289552,0,0.0,243.15860742632023
482.0,11.038264490815733,50.888358145801824,1140.0397009289552,0,0.0,243.15803629148317
483.0,11.037528433475252,50.8881231597134,1140.0397009289552,0,0.0,243.15746516392642
484.0,11.03679238356087,50.88788816899661,1140.0397009289552,0,0.0,243.15689404613613
485.0,11.036056341072596,50.88765317365153,1140.0397009289552,0,0.0,243.15632293187656
486.0,11.035320306010444,50.88741817367826,1140.0397009289552,0,0.0,243.15575182999547
487.0,11.034584278374417,50.88718316907688,1140.0397009289552,0,0.0,243.15518073273165
488.0,11.033848258164532,50.88694815984747,1140.0397009289552,0,0.0,243.15460964368452
489.0,11.03311224538079,50.886713145990136,1140.0397009289552,0,0.0,243.1540385644029
490.0,11.032376240023206,50.88647812750493,1140.0397009289552,0,0.0,243.15346748896354
491.0,11.031640242091783,50.886243104391966,1140.0397009289552,0,0.0,243.15289642412682
492.0,11.030904251586536,50.88600807665132,1140.0397009289552,0,0.0,243.152325365894
493.0,11.03016826850747,50.88577304428307,1140.0397009289552,0,0.0,243.1517543149265
494.0,11.029432292854597,50.88553800728732,1140.0397009289552,0,0.0,243.15118327404912
495.0,11.028696324627926,50.885302965664145,1140.0397009289552,0,0.0,243.15061223810005
496.0,11.02796036382746,50.885067919413615,1140.0397009289552,0,0.0,243.15004120994084
497.0,11.027224410453217,50.88483286853583,1140.0397009289552,0,0.0,243.14947019057155
498.0,11.0264884645052,50.884597813030894,1140.0397009289552,0,0.0,243.14889917904165
499.0,11.02575252598342,50.88436275289886,1140.0397009289552,0,0.0,243.1483281745265
500.0,11.025016594887887,50.88412768813983,1140.0397009289552,0,0.0,243.14775717738834
501.0,11.024280671218607,50.88389261875388,1140.0397009289552,0,0.0,243.1471861886639
502.0,11.023544754975592,50.88365754474112,1140.0397009289552,0,0.0,243.14661520851578
503.0,11.02280884615885,50.8834224661016,1140.0397009289552,0,0.0,243.1460442329822
504.0,11.022072944768386,50.88318738283542,1140.0397009289552,0,0.0,243.1454732667492
505.0,11.021337050804217,50.8829522949427,1140.0397009289552,0,0.0,243.14490231091648
506.0,11.020601164266347,50.88271720242346,1140.0397009289552,0,0.0,243.14433135719852
507.0,11.019865285154786,50.88248210527784,1140.0397009289552,0,0.0,243.1437604159545
508.0,11.019129413469539,50.882247003505896,1140.0397009289552,0,0.0,243.14318947999888
509.0,11.018393549210625,50.88201189710772,1140.0397009289552,0,0.0,243.1426185529436
510.0,11.017657692378037,50.88177678608341,1140.0397009289552,0,0.0,243.14204763198785
511.0,11.016921842971803,50.88154167043304,1140.0397009289552,0,0.0,243.14147672061972
512.0,11.016186000991915,50.88130655015668,1140.0397009289552,0,0.0,243.14090581493858
513.0,11.015450166438391,50.88107142525444,1140.0397009289552,0,0.0,243.1403349173196
514.0,11.01471433931124,50.88083629572641,1140.0397009289552,0,0.0,243.139764029624
515.0,11.01397851961047,50.88060116157266,1140.0397009289552,0,0.0,243.1391931471657
516.0,11.013242707336085,50.88036602279327,1140.0397009289552,0,0.0,243.13862227223112
517.0,11.012506902488099,50.88013087938834,1140.0397009289552,0,0.0,243.13805140738202
518.0,11.011771105066519,50.87989573135795,1140.0397009289552,0,0.0,243.13748054771975
519.0,11.011035315071357,50.87966057870217,1140.0397009289552,0,0.0,243.13690969605568
520.0,11.010299532502618,50.879425421421125,1140.0397009289552,0,0.0,243.13633885436374
521.0,11.00956375736031,50.879190259514864,1140.0397009289552,0,0.0,243.13576801822046
522.0,11.008827989644445,50.87895509298348,1140.0397009289552,0,0.0,243.13519718940012
523.0,11.008092229355032,50.87871992182707,1140.0397009289552,0,0.0,243.1346263698267
524.0,11.00735647649208,50.878484746045714,1140.0397009289552,0,0.0,243.13405555642618
525.0,11.006620731055593,50.87824956563949,1140.0397009289552,0,0.0,243.1334847517473
526.0,11.005884993045585,50.878014380608505,1140.0397009289552,0,0.0,243.13291395527784
527.0,11.005149262462064,50.877779190952815,1140.0397009289552,0,0.0,243.13234316435597
528.0,11.004413539305034,50.877543996672514,1140.0397009289552,0,0.0,243.13177238225504
529.0,11.003677823574511,50.877308797767704,1140.0397009289552,0,0.0,243.13120160852552
530.0,11.002942115270498,50.87707359423846,1140.0397009289552,0,0.0,243.130630842417
531.0,11.002206414393008,50.87683838608485,1140.0397009289552,0,0.0,243.13006008071858
532.0,11.001470720942047,50.87660317330699,1140.0397009289552,0,0.0,243.1294893322135
533.0,11.000735034917627,50.87636795590495,1140.0397009289552,0,0.0,243.12891858708116
534.0,10.99999935631975,50.87613273387881,1140.0397009289552,0,0.0,243.1283478515931
535.0,10.999263685148431,50.87589750722868,1140.0397009289552,0,0.0,243.12777712322583
536.0,10.99852802140368,50.87566227595462,1140.0397009289552,0,0.0,243.12720640259113
537.0,10.997792365085498,50.87542704005672,1140.0397009289552,0,0.0,243.12663568978866
538.0,10.9970567161939,50.87519179953507,1140.0397009289552,0,0.0,243.12606498430614
539.0,10.996321074728893,50.874956554389755,1140.0397009289552,0,0.0,243.1254942865057
540.0,10.995585440690487,50.874721304620856,1140.0397009289552,0,0.0,243.12492359581236
541.0,10.99484981407869,50.87448605022846,1140.0397009289552,0,0.0,243.12435291373777
542.0,10.994114194893505,50.87425079121267,1140.0397009289552,0,0.0,243.1237822392321
543.0,10.99337858313495,50.87401552757354,1140.0397009289552,0,0.0,243.12321157283267
544.0,10.992642978803032,50.87378025931119,1140.0397009289552,0,0.0,243.12264091286497
545.0,10.991907381897752,50.87354498642567,1140.0397009289552,0,0.0,243.12207026150259
546.0,10.991171792419125,50.87330970891708,1140.0397009289552,0,0.0,243.12149961642177
547.0,10.990436210367161,50.87307442678552,1140.0397009289552,0,0.0,243.1209289812079
548.0,10.989700635741864,50.87283914003106,1140.0397009289552,0,0.0,243.12035835252496
549.0,10.988965068543243,50.87260384865378,1140.0397009289552,0,0.0,243.1197877303228
550.0,10.988229508771312,50.872368552653796,1140.0397009289552,0,0.0,243.11921711819946
551.0,10.987493956426073,50.872133252031155,1140.0397009289552,0,0.0,243.11864651171945
552.0,10.986758411507537,50.87189794678596,1140.0397009289552,0,0.0,243.1180759132814
553.0,10.986022874015719,50.8716626369183,1140.0397009289552,0,0.0,243.11750532450924
554.0,10.985287343950617,50.87142732242826,1140.0397009289552,0,0.0,243.1169347412674
555.0,10.984551821312243,50.87119200331592,1140.0397009289552,0,0.0,243.1163641659171
556.0,10.98381630610061,50.87095667958137,1140.0397009289552,0,0.0,243.1157935987704
557.0,10.98308079831572,50.87072135122468,1140.0397009289552,0,0.0,243.11522303897755
558.0,10.982345297957592,50.87048601824595,1140.0397009289552,0,0.0,243.11465248620112
559.0,10.981609805026222,50.87025068064526,1140.0397009289552,0,0.0,243.11408194275205
560.0,10.980874319521623,50.87001533842272,1140.0397009289552,0,0.0,243.1135114072435
561.0,10.980138841443809,50.869779991578376,1140.0397009289552,0,0.0,243.11294087676438
562.0,10.979403370792783,50.869544640112345,1140.0397009289552,0,0.0,243.1123703559869
563.0,10.978667907568553,50.86930928402469,1140.0397009289552,0,0.0,243.11179984205
564.0,10.977932451771132,50.8690739233155,1140.0397009289552,0,0.0,243.1112293350659
565.0,10.977197003400525,50.86883855798489,1140.0397009289552,0,0.0,243.11065883955678
566.0,10.976461562456738,50.86860318803289,1140.0397009289552,0,0.0,243.11008834635288
567.0,10.975726128939785,50.86836781345963,1140.0397009289552,0,0.0,243.10951786369912
568.0,10.974990702849672,50.86813243426519,1140.0397009289552,0,0.0,243.1089473888719
569.0,10.97425528418641,50.86789705044964,1140.0397009289552,0,0.0,243.1083769216712
570.0,10.973519872950005,50.86766166201308,1140.0397009289552,0,0.0,243.10780646109745
571.0,10.972784469140464,50.86742626895558,1140.0397009289552,0,0.0,243.10723600809985
572.0,10.972049072757796,50.867190871277245,1140.0397009289552,0,0.0,243.10666556480192
573.0,10.971313683802014,50.86695546897814,1140.0397009289552,0,0.0,243.1060951272059
574.0,10.97057830227312,50.86672006205837,1140.0397009289552,0,0.0,243.10552469774768
575.0,10.969842928171127,50.866484650518,1140.0397009289552,0,0.0,243.10495427529023
576.0,10.969107561496044,50.86624923435713,1140.0397009289552,0,0.0,243.10438386238172
577.0,10.968372202247878,50.86601381357585,1140.0397009289552,0,0.0,243.10381345563667
578.0,10.967636850426631,50.86577838817422,1140.0397009289552,0,0.0,243.1032430565541
579.0,10.966901506032322,50.86554295815236,1140.0397009289552,0,0.0,243.1026726672945
580.0,10.966166169064953,50.865307523510324,1140.0397009289552,0,0.0,243.1021022822118
581.0,10.965430839524533,50.86507208424822,1140.0397009289552,0,0.0,243.10153190708934
582.0,10.964695517411073,50.86483664036612,1140.0397009289552,0,0.0,243.10096153944093
583.0,10.963960202724582,50.86460119186412,1140.0397009289552,0,0.0,243.1003911793041
584.0,10.963224895465062,50.864365738742286,1140.0397009289552,0,0.0,243.0998208251172
585.0,10.962489595632528,50.86413028100073,1140.0397009289552,0,0.0,243.09925048095207
586.0,10.961754303226986,50.86389481863952,1140.0397009289552,0,0.0,243.0986801433611
587.0,10.961019018248441,50.86365935165876,1140.0397009289552,0,0.0,243.09810981541688
588.0,10.960283740696907,50.8634238800585,1140.0397009289552,0,0.0,243.09753949067374
589.0,10.959548470572392,50.86318840383886,1140.0397009289552,0,0.0,243.0969691792743
590.0,10.958813207874899,50.8629529229999,1140.0397009289552,0,0.0,243.0963988703387
591.0,10.958077952604441,50.862717437541725,1140.0397009289552,0,0.0,243.095828571936
592.0,10.957342704761023,50.86248194746442,1140.0397009289552,0,0.0,243.09525828089318
593.0,10.956607464344657,50.86224645276805,1140.0397009289552,0,0.0,243.0946879968978
594.0,10.95587223135535,50.862010953452724,1140.0397009289552,0,0.0,243.0941177219233
595.0,10.955137005793107,50.86177544951851,1140.0397009289552,0,0.0,243.09354745284685
596.0,10.954401787657943,50.861539940965514,1140.0397009289552,0,0.0,243.09297719280312
597.0,10.953666576949859,50.861304427793804,1140.0397009289552,0,0.0,243.09240694015614
598.0,10.952931373668868,50.86106891000347,1140.0397009289552,0,0.0,243.09183669440574
599.0,10.952196177814976,50.860833387594575,1140.0397009289552,0,0.0,243.09126645455262
600.0,10.951460989388194,50.86059786056726,1140.0397009289552,0,0.0,243.0906962276286
601.0,10.950725808388526,50.86036232892155,1140.0397009289552,0,0.0,243.09012600326673
602.0,10.949990634815983,50.86012679265757,1140.0397009289552,0,0.0,243.0895557893355
603.0,10.949255468670575,50.859891251775394,1140.0397009289552,0,0.0,243.08898558239986
604.0,10.948520309952306,50.859655706275106,1140.0397009289552,0,0.0,243.08841538364646
605.0,10.947785158661187,50.85942015615679,1140.0397009289552,0,0.0,243.08784519131382
606.0,10.947050014797226,50.85918460142054,1140.0397009289552,0,0.0,243.08727500852424
607.0,10.946314878360427,50.85894904206642,1140.0397009289552,0,0.0,243.08670483069386
608.0,10.945579749350806,50.85871347809454,1140.0397009289552,0,0.0,243.08613466360512
609.0,10.944844627768365,50.85847790950497,1140.0397009289552,0,0.0,243.08556450090077
610.0,10.944109513613114,50.85824233629779,1140.0397009289552,0,0.0,243.08499434711422
611.0,10.943374406885065,50.858006758473124,1140.0397009289552,0,0.0,243.08442420339418
612.0,10.94263930758422,50.857771176031015,1140.0397009289552,0,0.0,243.08385406545707
613.0,10.94190421571059,50.85753558897157,1140.0397009289552,0,0.0,243.08328393535038
614.0,10.941169131264179,50.85729999729487,1140.0397009289552,0,0.0,243.082713811963
615.0,10.940434054245001,50.85706440100098,1140.0397009289552,0,0.0,243.0821436972423
616.0,10.939698984653065,50.85682880009002,1140.0397009289552,0,0.0,243.0815735899771
617.0,10.938963922488375,50.85659319456205,1140.0397009289552,0,0.0,243.08100348985505
618.0,10.93822886775094,50.856357584417175,1140.0397009289552,0,0.0,243.08043339869926
619.0,10.937493820440768,50.85612196965546,1140.0397009289552,0,0.0,243.07986331437402
620.0,10.936758780557868,50.855886350277004,1140.0397009289552,0,0.0,243.07929323735345
621.0,10.936023748102247,50.85565072628188,1140.0397009289552,0,0.0,243.07872316809977
622.0,10.935288723073914,50.855415097670196,1140.0397009289552,0,0.0,243.078153108386
623.0,10.934553705472878,50.855179464442024,1140.0397009289552,0,0.0,243.07758305482753
624.0,10.933818695299145,50.854943826597435,1140.0397009289552,0,0.0,243.07701300716204
625.0,10.933083692552724,50.85470818413654,1140.0397009289552,0,0.0,243.07644297028477
626.0,10.932348697233621,50.85447253705941,1140.0397009289552,0,0.0,243.07587293867567
627.0,10.931613709341852,50.854236885366134,1140.0397009289552,0,0.0,243.07530291650545
628.0,10.930878728877412,50.85400122905679,1140.0397009289552,0,0.0,243.0747329007399
629.0,10.930143755840321,50.85376556813148,1140.0397009289552,0,0.0,243.07416289332602
630.0,10.92940879023058,50.853529902590275,1140.0397009289552,0,0.0,243.07359289387756
631.0,10.928673832048197,50.853294232433264,1140.0397009289552,0,0.0,243.0730229008451
632.0,10.927938881293187,50.85305855766053,1140.0397009289552,0,0.0,243.07245291600174
633.0,10.927203937965551,50.85282287827217,1140.0397009289552,0,0.0,243.07188294022183
634.0,10.926469002065296,50.85258719426826,1140.0397009289552,0,0.0,243.07131297069546
635.0,10.925734073592436,50.852351505648876,1140.0397009289552,0,0.0,243.07074300842092
636.0,10.924999152546977,50.85211581241413,1140.0397009289552,0,0.0,243.07017305474696
637.0,10.924264238928927,50.851880114564075,1140.0397009289552,0,0.0,243.06960310857477
638.0,10.92352933273829,50.851644412098835,1140.0397009289552,0,0.0,243.06903317172726
639.0,10.922794433975078,50.85140870501845,1140.0397009289552,0,0.0,243.068463237548
640.0,10.9220595426393,50.85117299332303,1140.0397009289552,0,0.0,243.06789331633934
641.0,10.92132465873096,50.85093727701267,1140.0397009289552,0,0.0,243.06732340008404
642.0,10.920589782250067,50.850701556087444,1140.0397009289552,0,0.0,243.0667534927905
643.0,10.91985491319663,50.850465830547435,1140.0397009289552,0,0.0,243.06618359201096
644.0,10.919120051570658,50.85023010039273,1140.0397009289552,0,0.0,243.0656137000425
645.0,10.918385197372158,50.84999436562343,1140.0397009289552,0,0.0,243.06504381557437
646.0,10.917650350601138,50.84975862623959,1140.0397009289552,0,0.0,243.06447393725747
647.0,10.916915511257605,50.84952288224132,1140.0397009289552,0,0.0,243.0639040682135
648.0,10.916180679341567,50.84928713362869,1140.0397009289552,0,0.0,243.0633342065692
649.0,10.915445854853031,50.849051380401804,1140.0397009289552,0,0.0,243.06276435263646
650.0,10.914711037792006,50.84881562256072,1140.0397009289552,0,0.0,243.06219450552868
651.0,10.913976228158502,50.848579860105545,1140.0397009289552,0,0.0,243.06162466571988
652.0,10.913241425952526,50.84834409303637,1140.0397009289552,0,0.0,243.06105483580734
653.0,10.91250663117408,50.84810832135326,1140.0397009289552,0,0.0,243.06048501193294
654.0,10.91177184382318,50.8478725450563,1140.0397009289552,0,0.0,243.05991519525676
655.0,10.911037063899832,50.847636764145605,1140.0397009289552,0,0.0,243.05934538878847
656.0,10.910302291404037,50.84740097862123,1140.0397009289552,0,0.0,243.0587755871091
657.0,10.909567526335811,50.84716518848328,1140.0397009289552,0,0.0,243.05820579574907
658.0,10.908832768695161,50.84692939373181,1140.0397009289552,0,0.0,243.05763600746656
659.0,10.908098018482091,50.84669359436695,1140.0397009289552,0,0.0,243.05706623256293
660.0,10.907363275696609,50.84645779038875,1140.0397009289552,0,0.0,243.05649646229728
661.0,10.906628540338723,50.8462219817973,1140.0397009289552,0,0.0,243.05592669906662
662.0,10.905893812408445,50.84598616859271,1140.0397009289552,0,0.0,243.05535694625445
663.0,10.90515909190578,50.84575035077504,1140.0397009289552,0,0.0,243.05478719817998
664.0,10.904424378830734,50.84551452834439,1140.0397009289552,0,0.0,243.05421745994937
665.0,10.903689673183315,50.84527870130082,1140.0397009289552,0,0.0,243.05364772734254
666.0,10.902954974963535,50.84504286964445,1140.0397009289552,0,0.0,243.05307800416676
667.0,10.902220284171396,50.844807033375346,1140.0397009289552,0,0.0,243.05250828728884
